time,heading,pitch,roll,depth,lat,lon
935.5,72.09596616142122,-19.99085550243449,0.005004192873660387,48.59074020385742,-0.0013341607041450572,-0.0004990336568306021
935.6,72.09582955763781,-19.99711195571422,0.002035988969948051,48.57033157348633,-0.0013340425372508945,-0.0004987175268634181
935.7,72.09568612366525,-19.99735101233517,0.0019780905685941306,48.552459716796875,-0.001333947204679049,-0.0004984242312209724
935.8,72.09552902931433,-19.994490870620226,0.003419398471297343,48.53590393066406,-0.0013338636407396625,-0.0004981427042105757
935.9,72.09537876515259,-19.992749172381874,0.004319472245709895,48.51887130737305,-0.001333775830059124,-0.0004978569304581723
936.0,72.095194350045,-19.98180550178422,0.009676952318619893,48.50572967529297,-0.00133372295901752,-0.0004976060963454472
936.1,72.0950372556941,-19.986755681385187,0.007351405474599453,48.485870361328125,-0.0013336097716411465,-0.0004972949458941042
936.2,72.09488016134318,-19.996468210384947,0.002724641000423435,48.46400451660156,-0.001333478512492592,-0.0004969657236727661
936.3,72.09472989718144,-20.003344503331856,359.9994636027791,48.44333267211914,-0.001333358018851213,-0.0004966472669610557
936.4,72.09456597264136,-20.001128106946187,0.0006029697690237951,48.4265022277832,-0.001333272028807385,-0.000496363313847669
936.5,72.09441570847962,-19.99733052176766,0.0024990279793481456,48.410343170166016,-0.0013331920353236437,-0.0004960853572930097
936.6,72.09427227450705,-19.995382210306914,0.003499449755793347,48.39339828491211,-0.0013331050289584585,-0.0004958003878558689
936.7,72.09412201034532,-19.989988068409897,0.006169979099450618,48.37791442871094,-0.001333031115475059,-0.0004955285113006524
936.8,72.0939649159944,-19.987001568195307,0.007679587226327306,48.361412048339844,-0.0013329480682531091,-0.0004952475010058405
936.9,72.09378733107597,-19.98273099241676,0.009818455295326179,48.345455169677734,-0.001332869915554229,-0.0004949713852343285
937.0,72.0935755952117,-19.973942246502244,0.014152460452697194,48.3314094543457,-0.0013328089242101357,-0.0004947124308179212
937.1,72.09336385934743,-19.9759332466453,0.013282886157646662,48.312808990478516,-0.001332707028997751,-0.0004944125725304041
937.2,72.09313163291566,-19.97875069967793,0.012023368258700567,48.29386520385742,-0.0013326020129189203,-0.0004941095933786027
937.3,72.09285842534885,-19.974958237141283,0.01396852225772956,48.2777099609375,-0.0013325220960115995,-0.000493831713400222
937.4,72.09257838759288,-19.97228080298664,0.01538199455489866,48.26108932495117,-0.0013324379605821842,-0.0004935496148983186
937.5,72.09231884040443,-19.98345670001607,0.010097595921957477,48.23861312866211,-0.0013323012357178072,-0.0004932149269590639
937.6,72.09200465170261,-19.975531973031565,0.014056377566960834,48.224205017089844,-0.0013322370222287028,-0.0004929527504018642
937.7,72.0917314441358,-19.983142511314252,0.010500372810973256,48.2032356262207,-0.0013321138366545842,-0.0004926316017533661
937.8,72.09141725543398,-19.977934492072116,0.013146695087092982,48.18768310546875,-0.0013320393149881724,-0.00049235911701752
937.9,72.09110989692134,-19.97366562384086,0.015339939532714158,48.17173385620117,-0.0013319612265221606,-0.0004920830654793778
938.0,72.09078887803034,-19.970730350045045,0.016894424553753607,48.15522384643555,-0.0013318780947843359,-0.0004918019706686843
938.1,72.09049517989604,-19.980815124354567,0.012155774877515636,48.13321304321289,-0.001331745553974942,-0.0004914714667840901
938.2,72.09748929360613,-19.99999941818584,0.0,48.11869812011719,-0.0013316803816332675,-0.0004912083313738097
938.3,72.09746197284944,-19.99450794609315,0.002663656215675948,48.103248596191406,-0.0013316067721927144,-0.0004909367588671457
938.4,72.09744148228194,-19.99573567259646,0.002082505042810551,48.0849609375,-0.0013315076749585433,-0.0004906396985597134
938.5,72.09739367095774,-19.994023002662082,0.0029295839864326746,48.06791687011719,-0.0013314197417692607,-0.0004903538022983066
938.6,72.0973117086877,-19.983863096271687,0.007872491712107233,48.054439544677734,-0.0013313638853607586,-0.0004900999828183669
938.7,72.09725023698518,-19.99243327613276,0.0037601371156027073,48.03305435180664,-0.0013312369451127816,-0.000489775079495283
938.8,72.09719559547182,-20.003624541087827,359.99837077251186,48.01055908203125,-0.00133110005451116,-0.0004894402258219584
938.9,72.09712046339095,-20.00519548459693,359.9976604328382,47.99212646484375,-0.0013309996740192521,-0.0004891418822608835
939.0,72.09709314263426,-20.015211957014753,359.9928246589058,47.97012710571289,-0.0013308672271147024,-0.0004888114722856187
939.1,72.0970385011209,-20.0090511263834,359.99582994214063,47.9549560546875,-0.0013307961590783102,-0.0004885424411802902
939.2,72.09703167093174,-20.009522409436133,359.9956113760872,47.936988830566406,-0.00133069991608852,-0.00048824823511948453
939.3,72.09699068979671,-19.999251512471726,0.0005843607969006497,47.923553466796875,-0.0013306444460147713,-0.0004879948019749832
939.4,72.09698385960755,-20.001373993756307,359.9995728858058,47.90488815307617,-0.0013305419502799305,-0.000487694343167083
939.5,72.09695653885086,-19.99735271988246,0.0015250841290804027,47.888816833496094,-0.0013304627762429342,-0.00048741720605845467
939.6,72.0969018973375,-19.98965680423515,0.00526781007779878,47.87430191040039,-0.001330397560384771,-0.00048715402712838705
939.7,72.09687457658083,-19.996816550032616,0.0018277886790633296,47.85350799560547,-0.001330275963210739,-0.0004868344668800647
939.8,72.09684042563498,-20.00460467323372,359.99809756494506,47.83245086669922,-0.0013301519913854307,-0.0004865125319831973
939.9,72.09677212374328,-19.99920028605295,0.0007272891441236531,47.81696701049805,-0.0013300780779612433,-0.00048624065548940595
940.0,72.09673114260825,-20.002970550474796,359.9989171876455,47.797607421875,-0.0013299693451250122,-0.00048593395958121817
940.1,72.09671748222992,-20.011318749187847,359.9949010364135,47.776309967041016,-0.0013298432365133925,-0.0004856098878982956
940.2,72.09672431241908,-20.020997127241753,359.9902291870212,47.754451751708984,-0.0013297120701919038,-0.0004852807585068028
940.3,72.09675163317577,-20.023309146275803,359.98910903599733,47.7357063293457,-0.0013296088408732702,-0.0004849795661190534
940.4,72.09677895393244,-20.01688023071953,359.99222360225883,47.720645904541016,-0.0013295387718798546,-0.0004847115340557988
940.5,72.09687457658083,-20.026667891800155,359.98746979059655,47.6987419128418,-0.0013294071623847583,-0.00048438196148939324
940.6,72.09696336904004,-20.024898872805124,359.9882894132969,47.68171310424805,-0.0013293193969243981,-0.0004840962329588612
940.7,72.09709997282343,-20.032572590337633,359.98454646963177,47.66069793701172,-0.0013291957981083568,-0.0004837746710721261
940.8,72.09724340679601,-20.030294722249433,359.9855846583856,47.643882751464844,-0.0013291099495238996,-0.00048349085941728646
940.9,72.09740733133609,-20.028722071193037,359.9862949980593,47.626773834228516,-0.001329021421249772,-0.0004832043680723834
941.0,72.09759174644367,-20.02832762776847,359.9864316018427,47.60916519165039,-0.0013289284307592376,-0.00048291341451065303
941.1,72.09777616155127,-20.025317221891786,359.9878249604334,47.59265899658203,-0.001328845361340811,-0.00048263238202085834
941.2,72.09800838798304,-20.03553176979554,359.98279794120424,47.5705680847168,-0.0013287121069871471,-0.0004823011645957587
941.3,72.0982679351715,-20.046612044176594,359.9773611106249,47.54811477661133,-0.0013285755633536051,-0.0004819666578922556
941.4,72.09851382198163,-20.041545751359738,359.97973801645605,47.532474517822266,-0.001328500268913166,-0.0004816934003816866
941.5,72.09878019935925,-20.037141986892372,359.9817597524504,47.51655578613281,-0.0013284224473519522,-0.00048141761575032994
941.6,72.09910804843942,-20.047581931038735,359.97659612943784,47.49436569213867,-0.0013282882989248768,-0.0004810855042530005
941.7,72.09940174657373,-20.0400738455936,359.9801205070496,47.47975540161133,-0.0013282222451030936,-0.00048082148736012826
941.8,72.09975691641057,-20.048828440562264,359.9757765067375,47.458274841308594,-0.0013280944779577595,-0.00048049575714507396
941.9,72.10014623719326,-20.058141403495576,359.9711319781019,47.43655776977539,-0.0013279645766553804,-0.00048016789277302433
942.0,72.10056287873263,-20.06558801723818,359.9673890344367,47.415626525878906,-0.0013278417335539359,-0.00047984708660258
942.1,72.10096585989366,-20.058576828055163,359.97064020448164,47.40079879760742,-0.0013277737309436578,-0.00047958112092169906
942.2,72.09748929360613,-19.99999941818584,0.0,47.382442474365234,-0.0013276740098779696,-0.0004792834367871985
942.3,72.09753027474115,-20.00586655068288,359.9971413384613,47.36219024658203,-0.0013275572636778897,-0.00047896872752267646
942.4,72.0975849162545,-20.006891079058384,359.996649564841,47.34397888183594,-0.0013274588886196294,-0.00047867238939502824
942.5,72.09766004833537,-20.007177947003527,359.9964583195443,47.32608413696289,-0.0013273633032212556,-0.00047837884092647023
942.6,72.09773518041625,-20.002518050442283,359.99869862159204,47.31027603149414,-0.00132728648249914,-0.00047810405713395905
942.7,72.09785812382131,-20.00821613575737,359.995884583654,47.29009246826172,-0.0013271703535997195,-0.00047778996516255237
942.8,72.09801521817222,-20.019166636544192,359.9905570361014,47.2676887512207,-0.0013270342875923253,-0.0004774559360841913
942.9,72.09815182195561,-20.01596157027616,359.9920323569621,47.25126266479492,-0.0013269519299901201,-0.0004771756154127455
943.0,72.09834306725237,-20.018910504450314,359.9905297153447,47.232234954833984,-0.001326846204081105,-0.0004768719264331863
943.1,72.09856163330582,-20.024130476523496,359.9879342434601,47.212249755859375,-0.0013267318628544251,-0.0004765596221360097
943.2,72.09877336917009,-20.019088089368736,359.9902838285346,47.196598052978516,-0.0013266564489176442,-0.00047628624512906616
943.3,72.0989987654127,-20.015573957040765,359.9918957531787,47.180301666259766,-0.0013265752381275383,-0.00047600707126805035
943.4,72.09921733146614,-20.005385022346395,359.99675884786774,47.16682434082031,-0.0013265193599260195,-0.0004757532299951986
943.5,72.09945638808709,-20.009742683036865,359.99454586657663,47.1472053527832,-0.001326408287019931,-0.0004754441940162356
943.6,72.09966812395136,-20.005690673311754,359.99643099878756,47.131134033203125,-0.0013263291307011311,-0.00047516707462621664
943.7,72.09984570886978,-19.994448181937916,0.0017968470966974787,47.11810302734375,-0.0013262772632316932,-0.0004749172440855604
943.8,72.1000232937882,-19.99384371019637,0.0020234260325864228,47.100582122802734,-0.001326185030898386,-0.00047462704867916414
943.9,72.10014623719326,-19.98510789824792,0.006197492038577408,47.08649444580078,-0.0013261236721076083,-0.0004743677268169813
944.0,72.10024869003081,-19.981576690447024,0.007865562305101378,47.07020568847656,-0.0013260425626256235,-0.00047408865426216854
944.1,72.10030333154417,-19.976447218380347,0.01032174402086825,47.05459976196289,-0.0013259675301066588,-0.0004738156586711589
944.2,72.10031699192251,-19.971170897246513,0.012863915083541873,47.0390510559082,-0.001325893062746196,-0.00047354322823858183
944.3,72.10030333154417,-19.970614236829153,0.013135845324926312,47.02151107788086,-0.001325800677894484,-0.0004732528803139616
944.4,72.10026235040915,-19.9726991520733,0.012141981097043383,47.00285339355469,-0.001325698271333384,-0.00047295251068069376
944.5,72.10021453908496,-19.98162962441309,0.007841067172334555,46.98130416870117,-0.0013255698681074394,-0.00047262614438264877
944.6,72.1001394070041,-19.980292614883062,0.008510763385143004,46.96409225463867,-0.001325480430594354,-0.0004723387438012419
944.7,72.1000915956799,-19.99138142700058,0.00316422979094554,46.941627502441406,-0.0013253438127024597,-0.0004720041628375762
944.8,72.09999597303153,-19.981615964034752,0.007905675492498652,46.92797088623047,-0.001325286329258423,-0.0004717487163266016
944.9,72.09996182208567,-19.990881115643877,0.003434473120679804,46.906272888183594,-0.0013251566055359318,-0.0004714210295312248
945.0,72.09989352019397,-19.987326002180883,0.005163545889421946,46.88998794555664,-0.0013250755292012466,-0.0004711419901279087
945.1,72.09985936924812,-19.990189558990412,0.003782973893113285,46.870994567871094,-0.0013249700872196837,-0.0004708385850749616
945.2,72.09981155792393,-19.987711907868988,0.004984521478618555,46.85425567626953,-0.001324884913996434,-0.00047055544878152024
945.3,72.0997500862214,-19.97794473735587,0.009714249053500532,46.840599060058594,-0.0013248274099679001,-0.0004702999816825737
945.4,72.09970910508638,-19.979952812971856,0.008749265553481383,46.821964263916016,-0.0013247252106714596,-0.0004699998193123859
945.5,72.09963397300551,-19.975327067356464,0.011000462386631863,46.80613708496094,-0.0013246482030342852,-0.00046972484860407804
945.6,72.09957933149215,-19.98302469055107,0.0072922491328268,46.785099029541016,-0.0013245244225340755,-0.0004694031050298865
945.7,72.09948370884376,-19.976611142920426,0.01041489205969562,46.77002716064453,-0.00132445420372774,-0.00046913492315425666
945.8,72.09939491638455,-19.976448925927638,0.01051575574434566,46.75231170654297,-0.0013243602609153942,-0.00046884301726931893
945.9,72.09927880316867,-19.971500453873965,0.012937338783356183,46.73662185668945,-0.001324284490336178,-0.0004685692836189239
946.0,72.09914902957443,-19.96593214215311,0.01566595433355665,46.72119140625,-0.0013242110817065598,-0.0004682979119172286
946.1,72.09900559560187,-19.96523375531048,0.016046755722578042,46.703704833984375,-0.0013241191947212982,-0.00046800806185851767
946.2,72.09748929360613,-19.99999941818584,0.0,46.68574905395508,-0.0013240230736156129,-0.00046771397768022104
946.3,72.0974961237953,-20.007285522482952,359.99648564030093,46.66489791870117,-0.0013239009596098924,-0.0004673939006081415
946.4,72.09747563322779,-20.0041999845254,359.99798828191837,46.64842987060547,-0.001323818202308172,-0.00046711318023640394
946.5,72.09747563322779,-20.01091235293223,359.9947371118734,46.62782287597656,-0.0013236982575638397,-0.00046679527242036745
946.6,72.09746197284944,-20.01018323023833,359.99509228171024,46.610355377197266,-0.0013236065461640135,-0.0004665055979504627
946.7,72.09742099171443,-19.998997087925144,0.0005071611393116176,46.59730529785156,-0.0013235545211526785,-0.0004662556098688029
946.8,72.09741416152525,-20.004929107219297,359.99763311208153,46.5770263671875,-0.001323437526736494,-0.0004659406523795407
946.9,72.09735268982273,-19.99378394604113,0.003046428204319328,46.563961029052734,-0.0013233853520055107,-0.0004656905145782469
947.0,72.09731853887688,-19.997620804807386,0.0012063001406862658,46.5445671081543,-0.001323276317582244,-0.00046538351708153757
947.1,72.09728438793103,-20.0061363431551,359.9971140177046,46.523197174072266,-0.0013231495348524221,-0.0004650587712796127
947.2,72.09723657660683,-20.007982201778294,359.99623975349084,46.504642486572266,-0.0013230480535951982,-0.00046475932695242225
947.3,72.09717510490431,-20.002089456071865,359.99910843294225,46.489356994628906,-0.001322975931476714,-0.00046448924176381833
947.4,72.0971546143368,-20.01097382463476,359.99481907414344,46.467830657958984,-0.0013228477313545787,-0.0004641630785693903
947.5,72.09712729358012,-20.01379810785656,359.99345303630946,46.44886016845703,-0.0013227425190564643,-0.0004638599032012286
947.6,72.09712046339095,-20.01460065508404,359.9930705457159,46.43074417114258,-0.0013226449771114406,-0.0004635643981859174
947.7,72.0971546143368,-20.02585168419434,359.98760639437995,46.4082145690918,-0.0013225077713140472,-0.0004632292293176408
947.8,72.09716144452597,-20.016680447686305,359.9920323569621,46.394309997558594,-0.0013224480589701859,-0.0004629715539042239
947.9,72.09717510490431,-20.00860716408735,359.9959392251673,46.37994384765625,-0.0013223841752292304,-0.0004627097070922963
948.0,72.09723657660683,-20.014960947562756,359.9928519796625,46.35948181152344,-0.0013222655430481858,-0.00046239311183845393
948.1,72.09727072755268,-20.013209004040647,359.9936716023629,46.34244155883789,-0.0013221776842821432,-0.00046210729000128277
948.2,72.09728438793103,-20.002318267409063,359.9989171876455,46.32926559448242,-0.0013221245066616838,-0.00046185614930958305
948.3,72.09733902944438,-20.011644890720714,359.9944092627933,46.30754852294922,-0.0013219946030782017,-0.0004615282826524654
948.4,72.09734585963355,-20.007335041354438,359.99648564030093,46.29159164428711,-0.001321916461228176,-0.00046125217773184486
948.5,72.09735952001189,-20.005029852509555,359.99757847056816,46.2747917175293,-0.001321830705515166,-0.0004609684589471902
948.6,72.09739367095774,-20.01287603231861,359.99378088538964,46.253700256347656,-0.001321706429462965,-0.00046064621982263454
948.7,72.09741416152525,-20.015859117438612,359.9923328852856,46.23466110229492,-0.0013216006082115463,-0.00046034243550081475
948.8,72.09746197284944,-20.0210551838497,359.989819375671,46.214691162109375,-0.0013214863795082002,-0.00046003024372701665
948.9,72.09753027474115,-20.02748239185868,359.9866774886528,46.19419479370117,-0.0013213674630617954,-0.00045971336421058774
949.0,72.0975849162545,-20.021142268761615,359.9897100926443,46.17909240722656,-0.001321296992238766,-0.0004594449303177067
949.1,72.09768053890289,-20.023903372733596,359.9883440548103,46.1601448059082,-0.001321191971280917,-0.0004591419462890443
949.2,72.09774884079458,-20.013138994601654,359.9935349985795,46.14691162109375,-0.0013211382824889681,-0.0004588902944261704
949.3,72.09781714268628,-20.007159163983307,359.99637635727424,46.131656646728516,-0.0013210664409529689,-0.00045862048981825
949.4,72.09789910495633,-20.01117190012069,359.9944092627933,46.1121826171875,-0.0013209566865692035,-0.0004583127723614807
949.5,72.09794008609134,-20.003815786384585,359.99796096116165,46.097511291503906,-0.0013208900802606025,-0.000458048202981593
949.6,72.09798106722637,-20.005287692150723,359.9972233007313,46.0791130065918,-0.0013207899804606553,-0.00045775014010906827
949.7,72.09802204836139,-20.009223588659943,359.9953108477637,46.05967330932617,-0.001320680524581587,-0.0004574427211581201
949.8,72.0980425389289,-20.008909399958124,359.9954474515471,46.04202651977539,-0.0013205872038368606,-0.00045715143734261404
949.9,72.09803570873973,-19.99993623893602,359.9997914518592,46.028038024902344,-0.0013205267431793683,-0.0004568930136145019
950.0,72.0980630294964,-20.00933628678125,359.99525620625036,46.006290435791016,-0.001320396548391334,-0.0004565648557534137
950.1,72.09809035025309,-20.017320777920993,359.99137665880176,45.985137939453125,-0.0013202717220470311,-0.0004562420663387086
950.2,72.0981108408206,-20.01875682519399,359.9906663191281,45.96674728393555,-0.0013201717341122076,-0.00045594411533438794
950.3,72.09815182195561,-20.020723919674953,359.9897100926443,45.94813537597656,-0.0013200697196728349,-0.00045564413782501047
950.4,72.09817231252313,-20.010782579338,359.9944912250633,45.93455123901367,-0.0013200128922860723,-0.00045538934736807126
950.5,72.09823378422566,-20.01464334376635,359.9926060928524,45.915138244628906,-0.0013199036776343916,-0.0004550821696445609
950.6,72.09825427479316,-20.005200607238805,359.99716865921795,45.901344299316406,-0.0013198449626473923,-0.00045482549158667817
950.7,72.09826110498234,-19.99843018222403,0.00041903037552138,45.88642501831055,-0.0013197761068780619,-0.0004545586727452911
950.8,72.0982679351715,-19.99802037087383,0.0006125666975721087,45.86881637573242,-0.0013196831197440668,-0.00045426772253822663
950.9,72.09822012384731,-19.9882566154553,0.005343512452784189,45.855159759521484,-0.001319625645076457,-0.0004540122847990433
951.0,72.09814499176645,-19.9806255866051,0.009056509840556237,45.840606689453125,-0.0013195600921241267,-0.0004537487687738471
951.1,72.09802887855055,-19.974440850311655,0.012086436618000771,45.825443267822266,-0.0013194890645903895,-0.0004534797781668285
951.2,72.09788544457798,-19.975077765451758,0.011832238855042582,45.80739974975586,-0.0013193921549516014,-0.0004531849054538476
951.3,72.09772835022707,-19.984523917073886,0.007327358072738917,45.7856330871582,-0.0013192618128190774,-0.00045285660024752374
951.4,72.09750295398446,-19.975531973031565,0.01175172149684711,45.77165603637695,-0.0013192014545611464,-0.0004525982789212422
951.5,72.09725023698518,-19.965901406301846,0.016494631703683076,45.75794982910156,-0.001319143524233042,-0.0004523423855216592
951.6,72.09699751998589,-19.969050123509223,0.01506715051510351,45.73884582519531,-0.0013190370924796733,-0.0004520379906933428
951.7,72.09672431241908,-19.976938992000587,0.01135520283535942,45.71773910522461,-0.0013189126744351154,-0.0004517156095758795
951.8,72.09643744447395,-19.979821331830333,0.010067442871257585,45.69874572753906,-0.0013188072521479611,-0.00045141222421878183
951.9,72.09617789728549,-19.991251653406348,0.004640589937654674,45.676143646240234,-0.0013186693765865286,-0.000451076385585538
952.0,72.09593884066453,-20.002319974956354,359.999381640509,45.653690338134766,-0.0013185328618156348,-0.0004507419077453827
952.1,72.09569295385441,-19.998090380312824,0.0015075619674532427,45.6376953125,-0.0013184543945223592,-0.00045046547738440126
952.2,72.09552219912516,-20.008371522560985,359.9965949233277,45.61557388305664,-0.0013183208376150806,-0.00045013395740553107
952.3,72.09539242553093,-20.019839410177436,359.99110345123495,45.59294891357422,-0.0013181827771612446,-0.00044979793388195906
952.4,72.09530363307172,-20.02560408983693,359.9883440548103,45.57272720336914,-0.0013180663342216795,-0.0004494835278734989
952.5,72.09522850099086,-20.019530344117495,359.9912946965317,45.55751037597656,-0.0013179948116203296,-0.00044921404220246534
952.6,72.09522850099086,-20.02651250499654,359.9879342434601,45.536773681640625,-0.0013178737408584237,-0.0004488950083692755
952.7,72.09528997269338,-20.03704636424399,359.9828252619609,45.51454162597656,-0.0013177391941941944,-0.0004485624986342992
952.8,72.09532412363923,-20.02767192960815,359.98733318681315,45.50071334838867,-0.0013176801801290056,-0.0004483055214983624
952.9,72.09546072742263,-20.038098213376173,359.9822515260706,45.47852325439453,-0.001317546035769653,-0.00044797341406780435
953.0,72.09556318026019,-20.026966712576346,359.98757907362324,45.46543884277344,-0.0013174936886636557,-0.00044772310389016125
953.1,72.0956724632869,-20.01679314580761,359.992469489069,45.45195388793945,-0.0013174377188031163,-0.00044746917095765307
953.2,72.09582272744865,-20.019082966726856,359.9912946965317,45.433204650878906,-0.001317334474268879,-0.0004471679633500395
953.3,72.09598665198872,-20.028841599503515,359.9865408848694,45.41130065917969,-0.0013172028939863207,-0.0004468384199947302
953.4,72.09610276520462,-20.02165624049666,359.98998330021107,45.39655303955078,-0.0013171356108179822,-0.0004465731737552437
953.5,72.09623253879884,-20.01685290996285,359.99225092301555,45.38079833984375,-0.0013170592965521387,-0.0004462988964177264
953.6,72.0963554822039,-20.01398764560603,359.9936169608495,45.36423110961914,-0.0013169756378038316,-0.0004460172745972001
953.7,72.09646476523062,-20.012908475717165,359.9940814137131,45.34690856933594,-0.0013168852094724251,-0.00044572888319355263
953.8,72.09653989731149,-20.003925069411306,359.99842541402523,45.332923889160156,-0.0013168247796563554,-0.0004454704903058034
953.9,72.09659453882486,-19.99804598408322,0.001243787182046158,45.317630767822266,-0.0013167525792716383,-0.00044520032684858176
954.0,72.09664235014904,-20.00227728627404,359.9991903952123,45.298065185546875,-0.0013166420217377147,-0.0004448918062412139
954.1,72.09666284071655,-20.00134325790504,359.9996548480758,45.28068542480469,-0.0013165510679934726,-0.00044460288942571943
954.2,72.09663551995988,-19.99316239882666,0.003619370768795313,45.26636505126953,-0.0013164876158056021,-0.0004443414741669998
954.3,72.09657404825734,-19.984168747237046,0.007994739758553231,45.25238800048828,-0.0013164272589685365,-0.00044408315425813514
954.4,72.09647842560896,-19.977481992039603,0.011268720734326759,45.2374382019043,-0.0013163581543850866,-0.00044381608660188396
954.5,72.09632816144722,-19.968771793300544,0.015540189473399824,45.22334671020508,-0.0013162967477436931,-0.00044355671688798095
954.6,72.09613008596129,-19.961002453119654,0.019376716401850572,45.208858489990234,-0.0013162317843529781,-0.00044329379042408083
954.7,72.09591835009702,-19.971970029379403,0.014166135838777096,45.18645095825195,-0.001316095698866754,-0.00044295974186085176
954.8,72.09562465196271,-19.96132517955794,0.019425563260092073,45.173179626464844,-0.001316041660260899,-0.00044270774018756085
954.9,72.09531729345007,-19.962387273973874,0.019034203092304927,45.15496063232422,-0.0013159431852029521,-0.00044241130205537597
955.0,72.09499627455907,-19.967776293229015,0.016559728609156454,45.13491439819336,-0.0013158282859430232,-0.00044209843972261686
955.1,72.09461378396556,-19.960621670073426,0.02016094751657233,45.12016677856445,-0.0013157610032098368,-0.0004418331939207175
955.2,72.0942586141287,-19.968766670658667,0.01636673741199058,45.09895324707031,-0.0013156356394147457,-0.0004415098670507158
955.3,72.09386929334602,-19.967129132805155,0.017308236300394523,45.08187484741211,-0.0013155474093694709,-0.00044122367393633607
955.4,72.0934868027525,-19.97185903880539,0.015169881829604723,45.06210708618164,-0.0013154350025287337,-0.00044091330402309297
955.5,72.09307016121312,-19.962026981495157,0.02007859337776876,45.04848861694336,-0.0013153778823941015,-0.00044065822081988855
955.6,72.09265351967376,-19.9585555378495,0.021914680294779092,45.032188415527344,-0.001315296616269877,-0.0004403789916221539
955.7,72.09222321775604,-19.957519056642948,0.02258216786853586,45.01485824584961,-0.0013152061297104802,-0.00044009054198926144
955.8,72.09175193470331,-19.948281225790506,0.02722514737188405,45.00099563598633,-0.001315146786788415,-0.0004398332359960846
955.9,72.09129431202892,-19.95454109416482,0.024383982110250474,44.98058319091797,-0.001315028632150084,-0.0004395171182803728
956.0,72.09080936859786,-19.95580297161398,0.02396659185141257,44.96228790283203,-0.0013149294583220984,-0.00043921998138092566
956.1,72.09028344403177,-19.9482368295609,0.027825071768247896,44.947723388671875,-0.0013148638118147757,-0.00043895637180325735
956.2,72.08975751946568,-19.946017018080646,0.02910613411154862,44.93090057373047,-0.0013147778825174715,-0.00043867247943145903
956.3,72.08921110433207,-19.945538904838745,0.029555282415489766,44.91334533691406,-0.0013146853665484185,-0.0004383820003884821
956.4,72.08863053825262,-19.93859943264201,0.033138293599383334,44.898521423339844,-0.0013146173963478286,-0.00043811606711631907
956.5,72.08801582122732,-19.931376507594724,0.0368707518569573,44.883819580078125,-0.0013145505246752074,-0.0004378512323700276
956.6,72.08736695325616,-19.92241188430908,0.04146114257225502,44.86985778808594,-0.0013144902908507961,-0.00043759303547182986
956.7,72.08669076452834,-19.922968544726437,0.041467485843642404,44.85187911987305,-0.0013143939422841984,-0.0004372987238271719
956.8,72.08598042485465,-19.924230422175597,0.04114778096365424,44.83359909057617,-0.0013142949348772298,-0.00043700175334561014
956.9,72.0852632549918,-19.934424479511843,0.03652078136822017,44.81155014038086,-0.0013141620374553667,-0.00043667089284710306
957.0,72.0845324247506,-19.939885215753268,0.03418483332670267,44.791500091552734,-0.0013140471214533405,-0.000436358013774649
957.1,72.08377427375274,-19.932783526563746,0.03792148041122855,44.77676010131836,-0.0013139799017687305,-0.0004360928310220045
957.2,72.08305710388989,-19.94082778185873,0.034338329155096145,44.755619049072266,-0.0013138551977961216,-0.0004357701639716454
957.3,72.08234676421621,-19.950806688236117,0.02981667055337498,44.733665466308594,-0.0013137231561326024,-0.00043544015923528066
957.4,72.08167740567755,-19.96102123613987,0.02517250043599667,44.711612701416016,-0.001313590229950439,-0.0004351092699818494
957.5,72.08099438676055,-19.954226905463003,0.028739865217306686,44.69674301147461,-0.0013135218716733591,-0.00043484294863789963
957.6,72.0803455187894,-19.948436612594122,0.03181606502560407,44.681453704833984,-0.0013134497162625063,-0.000434572830154166
957.7,72.07970348100741,-19.944126763227846,0.034177529559963254,44.66554260253906,-0.0013133719665359834,-0.0004342971173532861
957.8,72.07906144322543,-19.941341753593772,0.03580728006400507,44.648990631103516,-0.0013132884622785485,-0.0004340156500208752
957.9,72.07843989601096,-19.951226744870073,0.03131718440676877,44.6270866394043,-0.0013131568834575883,-0.0004336861081214732
958.0,72.07781151860732,-19.952314452495397,0.031079775302151322,44.60890197753906,-0.001313058726947882,-0.0004333899885411343
958.1,72.07717631101451,-19.94641658414709,0.034218183859759374,44.59367370605469,-0.0013129871077759354,-0.00043312040629787035
958.2,72.07655476380003,-19.946631735105946,0.03440517029344839,44.575862884521484,-0.001312892309610106,-0.00043282764505628686
958.3,72.07593321658557,-19.945859923729735,0.035072918001363,44.558475494384766,-0.001312801283878228,-0.0004325386562505948
958.4,72.07529117880358,-19.9388299515265,0.03877045158071998,44.543731689453125,-0.0013127340443640587,-0.0004322734536642085
958.5,72.07463548064327,-19.93261447938179,0.042083963777088944,44.52865219116211,-0.0013126637483253044,-0.0004320051945506066
958.6,72.07400027305046,-19.943819404715196,0.036989593146451547,44.50621032714844,-0.0013125273477719614,-0.00043167083091634055
958.7,72.07331042394428,-19.93457815876817,0.04178016710136883,44.49241256713867,-0.001312468586354534,-0.0004314141064320338
958.8,72.07262057483811,-19.93151823402,0.04359169802088951,44.47600555419922,-0.0013123863820766319,-0.0004311339390780531
958.9,72.07192389554277,-19.931330403817828,0.04402695582781254,44.4583854675293,-0.001312293315287584,-0.00043084290921339464
959.0,72.07119306530157,-19.925435950564104,0.04722832685677834,44.44318389892578,-0.001312221935992597,-0.0004305735668460875
959.1,72.07046906524955,-19.932711809577462,0.04407716839038271,44.422420501708984,-0.0013121005835014959,-0.00043025425127556137
959.2,72.06969725387334,-19.924472893891135,0.048429012747885754,44.4082145690918,-0.0013120381617469721,-0.0004299938664529854
959.3,72.06891861230797,-19.91919145011542,0.051361335021523215,44.39276123046875,-0.0013119645333784374,-0.0004297222750091907
959.4,72.06812631036424,-19.9210407238332,0.050862030850918095,44.374298095703125,-0.0013118638681866223,-0.000429423646739714
959.5,72.06731351785301,-19.919389525601353,0.05206453768113041,44.35731887817383,-0.0013117765280543552,-0.0004291383435344986
959.6,72.06648023477426,-19.92009815772774,0.052135500945368465,44.3393440246582,-0.0013116802483560232,-0.0004288441007610293
959.7,72.06561280074968,-19.910564921193696,0.05716256019513752,44.32569885253906,-0.0013116228851045633,-0.0004285887744396077
959.8,72.06473853653591,-19.9091288739207,0.05829126896580196,44.30863952636719,-0.001311534804398086,-0.0004283027306548951
959.9,72.0638301213763,-19.904702911338532,0.06087858998012775,44.2928466796875,-0.0013114581202451816,-0.0004280280834283067
960.0,72.06288072508167,-19.895852693721487,0.06561668020117369,44.278926849365234,-0.001311398266770214,-0.0004277702668803212
960.1,72.06193132878704,-19.90706786433865,0.06068343600089314,44.25653076171875,-0.001311262262333805,-0.0004274362993586403
960.2,72.06093412116822,-19.900114731763576,0.064530640102502,44.24181365966797,-0.0013111952604870551,-0.0004271713344464687
960.3,72.05995057392774,-19.910694694787924,0.059923537435089554,44.21969223022461,-0.0013110617236793416,-0.00042683983455607484
960.4,72.0589328757414,-19.904451901886535,0.06344241887896838,44.204681396484375,-0.001310992083655741,-0.0004265722314668743
960.5,72.05792883793342,-19.910928628767,0.060825402550008914,44.18429946899414,-0.0013108741694519937,-0.0004262563541831585
960.6,72.05694529069292,-19.92220697863398,0.05589209498371556,44.16189193725586,-0.001310738055984687,-0.0004259222776401432
960.7,72.05595491326328,-19.919283657669215,0.05780933375281277,44.145484924316406,-0.001310655872562639,-0.0004256421311518903
960.8,72.0549918565903,-19.92050113888877,0.057724796821620634,44.12733459472656,-0.0013105579906480193,-0.00042534628616212373
960.9,72.05402196972817,-19.914084176163545,0.061324953514558654,44.11240768432617,-0.0013104891221188872,-0.0004250794545623138
961.0,72.05306574324436,-19.910754458943163,0.06343943067120651,44.096187591552734,-0.001310408569488926,-0.0004248009388561586
961.1,72.05211634694973,-19.916845280135522,0.061013626288474336,44.075984954833984,-0.00131029228982028,-0.00042448669610778514
961.2,72.05117378084427,-19.923410799475196,0.05836107163148963,44.05558776855469,-0.0013101742436123845,-0.0004241706868253211
961.3,72.05021755436047,-19.913667534624174,0.06357838900224057,44.042083740234375,-0.0013101181372607554,-0.00042391661740709814
961.4,72.04928864863335,-19.91990691243098,0.06108765113164699,44.02183151245117,-0.0013100013913782188,-0.00042360190844239494
961.5,72.04835974290623,-19.922650940930033,0.06028443022340275,44.00305938720703,-0.0013098979410589178,-0.00042330049505023463
961.6,72.0474308371791,-19.917033110337698,0.06351765101143769,43.987823486328125,-0.0013098262719604575,-0.00042303086288137114
961.7,72.04650193145199,-19.913933912001802,0.06554041420217963,43.971527099609375,-0.0013097450787477882,-0.00042275170659267995
961.8,72.04558668610319,-19.92107316723176,0.062629813130722,43.95091247558594,-0.001309625056152377,-0.0004224337209171014
961.9,72.04467827094359,-19.926911271424828,0.060348003009515434,43.93084716796875,-0.001309510002341282,-0.0004221207040324474
962.0,72.04379034635149,-19.933039658657624,0.05792389950396915,43.91066360473633,-0.0013093938776228382,-0.000421806616240443
962.1,72.04290925194856,-19.93061152640768,0.0596225422041462,43.89409637451172,-0.0013093102542926882,-0.00042152502984080107
962.2,72.04204864811314,-19.92901496968919,0.060917863567855314,43.87718200683594,-0.0013092235031389482,-0.0004212403156128095
962.3,72.04120853484523,-19.93389172475658,0.05909046112965295,43.85753631591797,-0.0013091122127518579,-0.00042093106214844143
962.4,72.04038208195566,-19.933958319100988,0.05958166112072529,43.839927673339844,-0.001309019210613215,-0.00042064009693793143
962.5,72.03958294982276,-19.940387234657262,0.057002651059237235,43.81963348388672,-0.00130890209279552,-0.0004203250160434844
962.6,72.03881113844655,-19.9498316787321,0.05296385815037754,43.79806900024414,-0.0013087735565688473,-0.00041999851674220885
962.7,72.03805981763784,-19.949713857968916,0.05352815250475026,43.78054428100586,-0.0013086813320366466,-0.00041970832914127356
962.8,72.0373631383425,-19.960213566270518,0.048962121018797156,43.75853729248047,-0.001308548831216537,-0.00041937786524396585
962.9,72.03668694961468,-19.960811207822893,0.049160246530527106,43.740718841552734,-0.0013084539260625023,-0.00041908499702125626
963.0,72.0360654024002,-19.966085821409436,0.04709251014595822,43.720924377441406,-0.0013083412978010592,-0.000418774405685296
963.1,72.0354506853749,-19.957945943466072,0.05148534897869457,43.7067985534668,-0.0013082795969036147,-0.00041851474171957106
963.2,72.03484962872794,-19.948807150356597,0.056358131997596615,43.69309616088867,-0.0013082217183340318,-0.00041825890007635564
963.3,72.034289553216,-19.959738868123203,0.051556829176195,43.67092514038086,-0.0013080877120396472,-0.00041792693069879006
963.4,72.03370898713655,-19.9539998016731,0.054793565110414125,43.655792236328125,-0.0013080169915940887,-0.00041765824718588223
963.5,72.03312159086792,-19.94357010281049,0.06029691666297918,43.64265060424805,-0.0013079641145536886,-0.0004174074070732506
963.6,72.03254102478847,-19.94296392352165,0.06107325704157972,43.625362396240234,-0.001307873990727467,-0.000417119320167809
963.7,72.03195362851986,-19.950880112769696,0.057750316649515625,43.60447692871094,-0.001307751563761406,-0.00041679893012308366
963.8,72.03134574168372,-19.944917357624274,0.06112196883016234,43.589454650878906,-0.0013076818258136666,-0.00041653122910770594
963.9,72.03076517560427,-19.956499650909322,0.05604096175812076,43.5670280456543,-0.001307545539724575,-0.0004161969799373135
964.0,72.03017777933565,-19.957351717008283,0.05613051460948462,43.54913330078125,-0.0013074499826458245,-0.00041590345979062633
964.1,72.02957672268869,-19.947313046475657,0.06147026178708671,43.53584289550781,-0.0013073957792398452,-0.0004156512933165283
964.2,72.02897566604173,-19.94091145167606,0.06506137381545975,43.521018981933594,-0.0013073277917972923,-0.00041538534279880556
964.3,72.0283882697731,-19.948062659737065,0.06212983527934912,43.50047302246094,-0.0013072084089621899,-0.00041506799688303996
964.4,72.02779404331531,-19.95618375466021,0.058734677643004045,43.47951889038086,-0.0013070853727754413,-0.00041474699762264933
964.5,72.02721347723586,-19.961166377659733,0.05684875835950039,43.45989227294922,-0.0013069742542960179,-0.0004144379160725831
964.6,72.0266602319131,-19.969162821630526,0.05350389666205812,43.438995361328125,-0.0013068517115781462,-0.0004141174102818053
964.7,72.02614113753617,-19.9782111147335,0.04964193828462499,43.41765213012695,-0.001306725189169822,-0.0004137929248019582
964.8,72.02566302429427,-19.98567309640174,0.04652995335435776,43.39698028564453,-0.0013066046884189799,-0.0004134744609810827
964.9,72.0252463827549,-19.995725427312706,0.04215129516827712,43.37521743774414,-0.001306474357623749,-0.0004131461671144723
965.0,72.02487755253972,-19.999760361564892,0.040654623296291464,43.355995178222656,-0.001306366864210004,-0.00041284071063240176
965.1,72.02453604308121,-19.994005927189157,0.04385861567715552,43.340904235839844,-0.001306296505121965,-0.0004125723884763555
965.2,72.02427649589276,-20.004686635503763,0.03912882306873409,43.318878173828125,-0.0013061638151029731,-0.00041224173538013313
965.3,72.02404426946097,-20.0090972301603,0.03740694171712313,43.29949951171875,-0.0013060549204105768,-0.00041193487761821636
965.4,72.02384619397505,-20.005794833696598,0.039389811000222624,43.28337860107422,-0.0013059752986455554,-0.0004116572927839254
965.5,72.02369592981331,-20.00782852252197,0.03879007503437055,43.26500701904297,-0.0013058754438830904,-0.00041135947494778995
965.6,72.02357981659742,-20.014641636219057,0.035878616854213355,43.2446174621582,-0.0013057574817458384,-0.0004110435497369535
965.7,72.02349785432737,-20.0182309006279,0.034509790915647265,43.225589752197266,-0.0013056517549431402,-0.00041073985986361686
965.8,72.02342955243567,-20.01214178698283,0.03779647927827873,43.21065139770508,-0.0013055827496856849,-0.00041047289153718994
965.9,72.023402231679,-20.017290042069728,0.03566054772371549,43.19097137451172,-0.001305471131292757,-0.0004101633100691129
966.0,72.02338174111149,-20.013070692709952,0.03803552922912256,43.17524719238281,-0.0013053950644052188,-0.00040988928011217085
966.1,72.023402231679,-20.02222143865048,0.033961348069636396,43.15387725830078,-0.001305268290732538,-0.0004095645433638274
966.2,72.02346370338152,-20.034423571602705,0.028406963531387983,43.131221771240234,-0.0013051299479035232,-0.00040922823746318375
966.3,72.02350468451655,-20.024197070867906,0.033652008535322256,43.1180305480957,-0.0013050766687745887,-0.00040897699526943655
966.4,72.02356615621908,-20.013781032383637,0.038982911151557706,43.104923248291016,-0.0013050241112788513,-0.0004087264747028236
966.5,72.02366177886746,-20.01951326864457,0.0365327942302272,43.084999084472656,-0.0013049103188761998,-0.00040841471922338236
966.6,72.02373008075915,-20.01123337182322,0.04083883163057686,43.07099533081055,-0.0013048496916247697,-0.0004081561289038719
966.7,72.02379155246169,-20.008581550877963,0.04243731934493132,43.05461502075195,-0.0013047677295886754,-0.00040787620379419343
966.8,72.02387351473173,-20.01729857980619,0.038560419928688784,43.03343200683594,-0.001304642646938604,-0.0004075531580684967
966.9,72.02392815624509,-20.014880692840006,0.040051362179095294,43.01695251464844,-0.001304559808487798,-0.0004072723565500992
967.0,72.0239691373801,-20.00596046578397,0.044677104459433126,43.00321960449219,-0.0013045016317467086,-0.0004070162167400537
967.1,72.02398962794761,-19.994832380078726,0.05037486627434561,42.990421295166016,-0.0013044518435616757,-0.0004067684654841669
967.2,72.0239691373801,-19.984443662351136,0.05573117532666366,42.97731399536133,-0.001304399272538362,-0.0004065179313882391
967.3,72.02392815624509,-19.986024851143995,0.05533623497915288,42.95915222167969,-0.0013043013004071483,-0.00040622199617943073
967.4,72.02385302416421,-19.988785955115972,0.05438775248912686,42.94049072265625,-0.0013041988717032366,-0.0004059216044027485
967.5,72.02377106189418,-19.998247474663735,0.0502173483716655,42.919002532958984,-0.0013040710193203708,-0.00040559578894614964
967.6,72.02364811848912,-19.994463549863546,0.052431313503474804,42.903106689453125,-0.001303993408704912,-0.00040532021526572915
967.7,72.02352517508406,-19.990355191077786,0.054803913780821625,42.88734436035156,-0.0013039170247534752,-0.00040504586824419945
967.8,72.02339540148982,-19.9903517759832,0.055203306424495474,42.86985397338867,-0.00130382507094087,-0.00040475595135909526
967.9,72.02322464676058,-19.979843529945136,0.06066987567415229,42.85679626464844,-0.0013037729707503984,-0.000404505888101677
968.0,72.02304023165298,-19.971650718035704,0.06503195864530374,42.8427619934082,-0.001303712097192477,-0.00040424705147117204
968.1,72.02282166559955,-19.971785614271813,0.06539614646628293,42.82521438598633,-0.0013036196400509996,-0.0004039566312534564
968.2,72.02257577878943,-19.972818680383778,0.06533943721987331,42.80728530883789,-0.001303523782649537,-0.0004036628107794125
968.3,72.02229574103346,-19.968071698910617,0.06807824969555587,42.79180145263672,-0.001303449871856885,-0.00040339093691785596
968.4,72.02201570327749,-19.979047812906828,0.06325012637547005,42.769676208496094,-0.0013033163035892782,-0.0004030594055711702
968.5,72.02170834476483,-19.97750077505982,0.06445706882657891,42.752838134765625,-0.0013032302474953298,-0.0004027753864125664
968.6,72.02139415606301,-19.97029663303275,0.06839078421093685,42.7383918762207,-0.0013031656503644466,-0.00040251282621367977
968.7,72.02105264660452,-19.960917075755027,0.07337985720355432,42.7248649597168,-0.0013031093192487448,-0.00040225853202747097
968.8,72.02069747676767,-19.964788085467134,0.07199768438165893,42.70574188232422,-0.00130300272573482,-0.0004019539754343804
968.9,72.02032181636332,-19.962020151305985,0.07382137157047879,42.689422607421875,-0.0013029213303893921,-0.0004016746170201871
969.0,72.01994615595898,-19.972422529411915,0.0693083507568193,42.667545318603516,-0.0013027899751240307,-0.0004013452986762414
969.1,72.01956366536545,-19.978404067577554,0.06692366091123943,42.64753341674805,-0.0013026753928687014,-0.00040103275335253796
969.2,72.01920849552862,-19.988813275872655,0.06240005463838775,42.62565231323242,-0.001302544009813272,-0.00040070340722507184
969.3,72.01885332569177,-19.9815596149741,0.06637413750795752,42.61122512817383,-0.0013024796238978893,-0.0004004410582480094
969.4,72.01853913698994,-19.990252738240233,0.06266064236347961,42.59006881713867,-0.0013023547360014932,-0.00040011820727363286
969.5,72.01823860866646,-19.991253360953642,0.06264489424177024,42.57215881347656,-0.0013022590368708348,-0.000399824545075811
969.6,72.01798589166718,-20.002765644799698,0.05755731044460987,42.549808502197266,-0.0013021234676112094,-0.00039949101274094846
969.7,72.01776049542457,-20.0074340790974,0.05575139575485594,42.53034973144531,-0.00130201384812841,-0.00039918343019118937
969.8,72.01757608031697,-20.01050766422391,0.05469916309154382,42.51156234741211,-0.0013019102772373677,-0.00039888189623083045
969.9,72.01741898596606,-20.009425079240458,0.05563537258540498,42.494529724121094,-0.0013018224691343334,-0.00039859612505896273
970.0,72.01728238218267,-20.000810503149783,0.06019202923651585,42.480682373046875,-0.0013017632463894096,-0.00039833893924579717
970.1,72.01715260858843,-19.9939956819054,0.06388011127480456,42.46607208251953,-0.0013016972065290656,-0.0003980749363125488
970.2,72.01703649537255,-19.995670785799348,0.06348342669441491,42.44788360595703,-0.0013015989819703101,-0.00039777874867705194
970.3,72.01692721234582,-20.002963720285628,0.06038451517310591,42.42732238769531,-0.0013014794719443177,-0.0003974612755759796
970.4,72.0168179293191,-20.00512889025252,0.05975154206600953,42.40892791748047,-0.001301379410852321,-0.0003971632514148187
970.5,72.0167496274274,-20.017061230732534,0.05440945034593355,42.386409759521484,-0.0013012423106319214,-0.0003968281881194116
970.6,72.01669498591404,-20.020812712134163,0.05299620483238924,42.36734390258789,-0.0013011362349409552,-0.00039652414936193795
970.7,72.01666083496819,-20.017976476081316,0.054743769429507164,42.35105895996094,-0.0013010551366787046,-0.0003962450880322984
970.8,72.01664717458985,-20.01382542861324,0.0571176170167903,42.335330963134766,-0.0013009790304748235,-0.0003959710187582483
970.9,72.01666083496819,-20.016195504255236,0.05634762657968376,42.31684875488281,-0.001300878199976831,-0.0003956722251862901
971.0,72.01666083496819,-20.00687400358546,0.06120631899836935,42.30330276489258,-0.0013008217193947662,-0.0003954177815374355
971.1,72.01666083496819,-20.003638201466167,0.06313833538866398,42.287193298339844,-0.0013007421730737072,-0.0003951402721420001
971.2,72.01664034440068,-19.993712229054847,0.06829934371940198,42.27390670776367,-0.001300688019899903,-0.0003948881558987181
971.3,72.01659936326567,-19.987723860700036,0.0715761269737156,42.25896072387695,-0.0013006189478922878,-0.0003946211208166551
971.4,72.01655155194148,-19.99829357844063,0.06689181782227689,42.23702621459961,-0.0013004870764237776,-0.00039429128626708264
971.5,72.01645592929309,-19.989281143830798,0.07164372183411492,42.223358154296875,-0.001300429497792097,-0.00039403574457336546
971.6,72.0163398160772,-19.983743567961213,0.07473142090621025,42.20822525024414,-0.0013003587466426866,-0.0003937670303509068
971.7,72.01619638210464,-19.975876897584648,0.07895201090581534,42.19407653808594,-0.001300296838713697,-0.0003935071593509502
971.8,72.01602562737538,-19.978943652521984,0.07792341376528052,42.17531204223633,-0.001300193470594369,-0.0003932058281533389
971.9,72.01582072170028,-19.976501859893705,0.07955759655516556,42.158878326416016,-0.001300111009134188,-0.0003929254036242837
972.0,72.0155884952685,-19.972277387892053,0.08206006714328849,42.14319610595703,-0.0013000353190142548,-0.00039265175043384125
972.1,72.01534943864755,-19.98261146410628,0.07756242092536815,42.12136459350586,-0.001299904399145916,-0.00039232286748566497
972.2,72.01510355183743,-19.993324615819446,0.07288184703363179,42.09937286376953,-0.0012997720321235473,-0.00039199253739293497
972.3,72.01487132540565,-19.996413568871585,0.07186588307501884,42.08060073852539,-0.0012996685820439312,-0.00039169112424828495
972.4,72.01465958954138,-20.001303984317314,0.0699729735197865,42.061065673828125,-0.0012995582817384923,-0.00039138286087271243
972.5,72.01448200462296,-20.0074118809826,0.06748384981499286,42.041015625,-0.0012994433581144573,-0.00039106997417868636
972.6,72.01431808008289,-20.005272324225093,0.06895429482778273,42.024444580078125,-0.00129935971058792,-0.0003907883635866128
972.7,72.01418830648865,-20.008364692371813,0.06789644259965057,42.00566864013672,-0.0012992562113522473,-0.0003904869012783055
972.8,72.01407902346193,-20.007637277225207,0.06866956798686444,41.988502502441406,-0.0012991671993365852,-0.0003901999261939401
972.9,72.01399706119189,-20.010782579338,0.0675717418098105,41.96969985961914,-0.0012990635005810393,-0.00038989826436579413
973.0,72.0139492498677,-20.02185602352988,0.06264867619221887,41.94755172729492,-0.0012989297318003292,-0.00038956653251072127
973.1,72.01390143854351,-20.0147457966039,0.06646936662004764,41.933082580566406,-0.0012988649258388859,-0.00038930376348754486
973.2,72.01388777816517,-20.01341561726304,0.06750101866941045,41.91617202758789,-0.001298778200134416,-0.00038901907470986313
973.3,72.01388777816517,-20.016528475977275,0.06639055931043464,41.89738464355469,-0.0012986746330879435,-0.000388717544589912
973.4,72.013880947976,-20.006646899795555,0.07153341161097657,41.88408660888672,-0.0012986203578839546,-0.0003884653063206979
973.5,72.01387411778683,-20.000981257879033,0.0746498655126734,41.8690071105957,-0.0012985501020095409,-0.0003881970873725545
973.6,72.01388777816517,-20.012510617198014,0.0694940331846658,41.84667205810547,-0.0012984146354357926,-0.0003878636577176137
973.7,72.01386728759766,-20.00375772977664,0.07410270999723852,41.83290100097656,-0.0012983561051767714,-0.0003876071643975393
973.8,72.01387411778683,-20.014067900328776,0.06953668851644532,41.81108093261719,-0.0012982252749588802,-0.00038727837109895247
973.9,72.01385362721932,-20.00394043733694,0.07480760686392499,41.79788589477539,-0.0012981719606670265,-0.0003870270937464395
974.0,72.01383996684098,-20.002265333442995,0.07601256162326366,41.7811279296875,-0.0012980865890861166,-0.00038674375909032656
974.1,72.01381947627347,-20.007487013063468,0.07390230664410079,41.76145553588867,-0.001297975069766063,-0.00038643427669503674
974.2,72.01379898570596,-20.005900701628732,0.07506984210534984,41.744659423828125,-0.0012978893739008818,-0.0003861506177625304
974.3,72.01377849513845,-20.008904277316248,0.07402774466903365,41.72592544555664,-0.001297786264583736,-0.00038584954537233216
974.4,72.01377166494927,-20.017045862806903,0.07051069750447295,41.705020904541016,-0.001297663670403216,-0.00038552898811874064
974.5,72.01377849513845,-20.023073504749437,0.06800263736700972,41.68500900268555,-0.001297549076594861,-0.00038521643124193026
974.6,72.01382630646263,-20.03313095830228,0.06354439813894917,41.663291931152344,-0.001297419197894783,-0.00038488858947092466
974.7,72.01388777816517,-20.03027081658734,0.06528957150284694,41.647029876708984,-0.0012973382861706242,-0.00038460971468396045
974.8,72.01399706119189,-20.037282005770358,0.06227030772458395,41.6265983581543,-0.0012972199279516342,-0.00038429339339122114
974.9,72.0141541555428,-20.048153959381725,0.05737757775186069,41.60453414916992,-0.001297086916721976,-0.00038396241909066956
975.0,72.0143590612179,-20.057622309118656,0.053141259640866065,41.58306121826172,-0.0012969592128731068,-0.00038363675217411707
975.1,72.01458445746051,-20.048673053758645,0.05775263784661637,41.569358825683594,-0.0012969013270787708,-0.00038338090331846414
975.2,72.01485766502731,-20.04548335541625,0.059579726789808,41.553226470947266,-0.0012968216004279733,-0.0003831032135959015
975.3,72.01517185372913,-20.05384692205493,0.05583613278924641,41.53221893310547,-0.0012966980593439382,-0.00038278170943645696
975.4,72.0154997028093,-20.05643214865578,0.05486456506023854,41.513648986816406,-0.0012965964270490668,-0.0003824821140740298
975.5,72.01587536321364,-20.066434960695265,0.05030868214149459,41.491947174072266,-0.001296466657494463,-0.000382154381447128
975.6,72.01630566513136,-20.07703882938171,0.045445997664002105,41.46998596191406,-0.0012963345934089352,-0.0003818243542928543
975.7,72.01676328780574,-20.079205706895895,0.04462559456112705,41.45158767700195,-0.0012962344968203588,-0.0003815262946391998
975.8,72.01724823123682,-20.070628696845652,0.04896158074016163,41.437721252441406,-0.0012961751160165604,-0.00038126895077035105
975.9,72.01780147655958,-20.07894445216014,0.045151362379712665,41.416725158691406,-0.001296051677860851,-0.00038094754953951006
976.0,72.01836155207153,-20.079029829524767,0.04529301876887101,41.39919662475586,-0.0012959594359015435,-0.00038065734451362554
976.1,72.018983099286,-20.08976005671086,0.0402942741216671,41.37717819213867,-0.0012958268153492928,-0.0003803267608889644
976.2,72.01964562763548,-20.099976312161903,0.035525401358609814,41.35537338256836,-0.0012956961241933184,-0.000379998106665158
976.3,72.02030815598498,-20.089534660468246,0.0406885774739965,41.342281341552734,-0.0012956437248133462,-0.0003797477442230968
976.4,72.02103215603701,-20.090868254903693,0.040167992328247894,41.324222564697266,-0.001295546666752459,-0.0003794527230904517
976.5,72.02176298627819,-20.089693462366448,0.040847549459917885,41.30721664428711,-0.0012954591101002892,-0.00037916720336974603
976.6,72.02252113727607,-20.090009358615564,0.04080157908515252,41.28958511352539,-0.0012953658848404545,-0.0003788760150403331
976.7,72.02329977884145,-20.096298255293853,0.03787058416273072,41.26942443847656,-0.0012952499947564372,-0.0003785621618855668
976.8,72.02410574116351,-20.101799972670296,0.035309173177536686,41.24959945678711,-0.0012951370738822645,-0.000378251277943394
976.9,72.02489804310723,-20.09246822671677,0.03988312541509076,41.236026763916016,-0.001295080360965273,-0.00037799660196245825
977.0,72.02573132618598,-20.096088226976875,0.03821194020877929,41.21699142456055,-0.0012949745297081308,-0.0003776928076333451
977.1,72.02655094888637,-20.09068896243798,0.04088035304423245,41.20175552368164,-0.001294902865939792,-0.00037742318079891284
977.2,72.02739106215428,-20.096620981732134,0.038086688946831544,41.181739807128906,-0.001294788227394333,-0.0003771105791815793
977.3,72.02822434523303,-20.093504707923316,0.03964727378036706,41.16553497314453,-0.0012947078674860782,-0.00037683225620770486
977.4,72.02908494906845,-20.100550048052185,0.03630688772446101,41.145042419433594,-0.0012945889610916279,-0.0003765153867423254
977.5,72.02992506233636,-20.09130197191599,0.040811254074792275,41.13142013549805,-0.0012945317984636956,-0.00037626026105119716
977.6,72.0307583454151,-20.08559534886444,0.043606952554709644,41.116302490234375,-0.0012944611795432965,-0.00037599167906185227
977.7,72.0315779681155,-20.076721225585302,0.04793406749195114,41.10252380371094,-0.001294402564648381,-0.0003757351010991182
977.8,72.03240442100507,-20.086519131949686,0.04326850801019692,41.08085632324219,-0.0012942731228390272,-0.0003754076962142734
977.9,72.0331967229488,-20.082120490124197,0.045445584117392204,41.065181732177734,-0.0012941974917954273,-0.00037513410210717623
978.0,72.03395487394667,-20.07191106486232,0.0504247353264253,41.05195236206055,-0.0012941438677699735,-0.00037488251501575893
978.1,72.03470619475537,-20.068449866500416,0.052158669560682956,41.0358772277832,-0.0012940646317574965,-0.0003746053159323019
978.2,72.03543702499655,-20.07174714032224,0.05064395838536693,41.016944885253906,-0.0012939597536235515,-0.00037430247472683724
978.3,72.0361337042919,-20.068972375971924,0.05205966516825083,41.000572204589844,-0.001293877877687254,-0.00037402263572450733
978.4,72.03684404396559,-20.080310489994144,0.04667441785839948,40.978240966796875,-0.001293742446513912,-0.0003736892414778912
978.5,72.03751340250425,-20.071427828978543,0.051031725033217214,40.964439392089844,-0.0012936836626355709,-0.0003734324945397083
978.6,72.03820325161041,-20.077651838859715,0.048106699856212555,40.94425964355469,-0.0012935675610077748,-0.0003731184298390921
978.7,72.03889310071659,-20.083693141180593,0.04526435065065547,40.92415237426758,-0.0012934521167829243,-0.000372805022546962
978.8,72.03958978001192,-20.084010744977,0.04517162616359792,40.906455993652344,-0.0012933583342212601,-0.0003725132769205345
978.9,72.04027279892892,-20.07395499897145,0.05007310064608865,40.89313507080078,-0.0012933038596796456,-0.0003722608393153544
979.0,72.04094215746758,-20.065031356820825,0.05442904711915767,40.87933349609375,-0.0012932450674873705,-0.00037200408405475984
979.1,72.04159785562791,-20.05903103563497,0.05738330737343983,40.864295959472656,-0.0012931751803677003,-0.00037173623386489084
979.2,72.0422398934099,-20.06154283770224,0.056242145513732016,40.84566116333008,-0.0012930729889066397,-0.00037143607933081026
979.3,72.04284778024602,-20.062377828328277,0.055914263083038346,40.827735900878906,-0.001292977137312558,-0.00037114226466845613
979.4,72.04346249727132,-20.06796150797476,0.053299788064697796,40.807804107666016,-0.0012928632583743493,-0.0003708304226599674
979.5,72.04407721429662,-20.079045197450398,0.04802853287683426,40.78554153442383,-0.0012927284821765564,-0.00037049768339245164
979.6,72.04470559170026,-20.08406709403765,0.04566858579172915,40.765838623046875,-0.001292616657612189,-0.00037018789576395727
979.7,72.04537495023892,-20.09448996271109,0.040689004360819625,40.74384689331055,-0.0012924843086432906,-0.0003698575837270034
979.8,72.04605113896676,-20.091614453070516,0.04210274012719987,40.72746658325195,-0.0012924023373156776,-0.00036957764933769776
979.9,72.04675464845127,-20.08523847148031,0.045191779890724086,40.71255874633789,-0.0012923336130919532,-0.00036931096204829435
980.0,72.04748547869247,-20.088933603821285,0.04341598073232035,40.693397521972656,-0.0012922266675212625,-0.00036900605340627903
980.1,72.04823679950117,-20.09363618906484,0.04114610676689479,40.67380905151367,-0.0012921158802174672,-0.00036869730303408765
980.2,72.04899495049904,-20.091643481374486,0.04209386555035348,40.657039642333984,-0.0012920304458733664,-0.00036841390562446474
980.3,72.04978725244275,-20.099508444203757,0.038278948099796824,40.6361083984375,-0.001291907608872854,-0.0003680931055529701
980.4,72.05061370533232,-20.10882652977895,0.03374894185965156,40.614559173583984,-0.0012917792249840525,-0.0003677667585964762
980.5,72.05146747897858,-20.113095398010206,0.031636762554731315,40.59513854980469,-0.0012916699508906883,-0.0003674595214380321
980.6,72.052328082814,-20.10317284069347,0.03635366184707303,40.581703186035156,-0.0012916144503201403,-0.0003672060578043876
980.7,72.05322283759527,-20.10338457655774,0.036172391694749936,40.563987731933594,-0.0012915204898364307,-0.00036691413425022463
980.8,72.05413808294405,-20.105761482388903,0.03494053973050103,40.54535675048828,-0.0012914183022439095,-0.00036661398358869493
980.9,72.05508747923868,-20.116855417148297,0.02949381738306626,40.523040771484375,-0.001291283031183905,-0.000366280749458352
981.0,72.05607102647917,-20.128429172696883,0.023799092134188588,40.500518798828125,-0.001291145903483,-0.00036594565869078037
981.1,72.05708189447633,-20.13119539931074,0.022332178942849428,40.48170852661133,-0.0012910421204918186,-0.00036564391263581633
981.2,72.05816789455436,-20.14300991902757,0.01647639062962771,40.459075927734375,-0.0012909039878356804,-0.0003653078169120149
981.3,72.05926755501073,-20.141280173620263,0.01713315100442679,40.44215393066406,-0.0012908171612830263,-0.00036502302729613217
981.4,72.06039453622378,-20.131535201221947,0.021638070973606798,40.42860794067383,-0.001290760673700289,-0.00036476857664842586
981.5,72.06158981932853,-20.139553843307542,0.017558630435057596,40.407562255859375,-0.0012906368130854186,-0.000364446752962934
981.6,72.06281242318997,-20.147796174088455,0.013356356548207252,40.38642120361328,-0.0012905120688882538,-0.0003641240456986426
981.7,72.06402819686224,-20.139891937671457,0.016931313578367628,40.37208557128906,-0.0012904484930301352,-0.0003638625067764723
981.8,72.06530544223702,-20.148113777884863,0.012710407582461827,40.35094451904297,-0.0012903237509149592,-0.0003635398015919126
981.9,72.06660317817932,-20.15242362725114,0.010362059812753845,40.331443786621094,-0.0012902137897626508,-0.00036323187737357293
982.0,72.06794189525665,-20.15797144840448,0.007400317366380413,40.31142044067383,-0.001290099100687668,-0.0003629192252323462
982.1,72.06926695195563,-20.14964203271165,0.011122388600433863,40.29724884033203,-0.0012900369692043295,-0.0003626591306845294
982.2,72.07066714073548,-20.160170769317226,0.005725933427067148,40.27511215209961,-0.0012899033025878862,-0.0003623275009993421
982.3,72.07205366913699,-20.155756759566106,0.007531695955014009,40.25927734375,-0.001289826241217658,-0.0003620524765645768
982.4,72.07349483905188,-20.164139109225005,0.003143948289589601,40.238037109375,-0.0012897006207286891,-0.0003617288930081634
