time,heading,pitch,roll,depth,lat,lon
26.1,90.02052039274488,0.002754795301768316,359.9878796019467,0.976830780506134,3.615635993739544e-05,3.619903633464402e-05
26.2,90.0303558651497,0.008626574778709057,359.9827159789342,0.9721031188964844,3.6198898292109406e-05,3.6241721553271865e-05
26.3,90.03092960103999,0.008934557780091118,359.98238812985403,0.9717229604721069,3.620236891827186e-05,3.6245371232791255e-05
26.4,90.04017084698701,0.014451523020249914,359.97755235592166,0.9672729969024658,3.624240959513228e-05,3.628556622876838e-05
26.5,90.04495197940602,0.017285547932756048,359.9750115255504,0.9649186730384827,3.6263616861629534e-05,3.630694526100823e-05
26.6,90.04792994188415,0.019038481965696102,359.9734542424197,0.9634093046188354,3.627723511623326e-05,3.632073124182113e-05
26.7,90.04176228106363,0.015288589716966752,359.9766780917079,0.9661979079246521,3.625223966924717e-05,3.629591313841354e-05
26.8,90.04868126269285,0.01941243315522765,359.97304443106947,0.9628366827964783,3.6282501881234626e-05,3.6326322086306706e-05
26.9,90.0406967715531,0.014569738987249356,359.9772245068415,0.9664773344993591,3.624984926554127e-05,3.6293854490407305e-05
27.0,90.04608579080825,0.017771927104275047,359.9743831481468,0.9638345837593079,3.627365705217974e-05,3.6317808683171376e-05
27.1,90.05335311208513,0.022104089644694676,359.97055824221155,0.9603084921836853,3.6305394041823095e-05,3.634970766431972e-05
27.2,90.04887250798961,0.019372499226945554,359.97288050652935,0.9622980356216431,3.628757499498339e-05,3.633206920826081e-05
27.3,90.05120160249658,0.020732885813121646,359.9716510724788,0.9610929489135742,3.629846457223774e-05,3.634311369861293e-05
27.4,90.05010877222938,0.02003625821110658,359.97222480836905,0.9614936113357544,3.629492360769536e-05,3.633974147662753e-05
27.5,90.05835964074676,0.024958721851576552,359.9678808080569,0.9575066566467285,3.6330804244325385e-05,3.637577341324507e-05
27.6,90.05521092353938,0.023026548713776553,359.96952005345776,0.9588704705238342,3.6318606703724884e-05,3.6363755354777306e-05
27.7,90.05893337663704,0.025227028557544377,359.96755295897674,0.9570086002349854,3.633539580427105e-05,3.6380698774257215e-05
27.8,90.05734194256043,0.024229505776185132,359.9683999024339,0.9576427340507507,3.63297558479415e-05,3.637522956830153e-05
27.9,90.0467346587794,0.0178112190347958,359.9739460160399,0.9625097513198853,3.6286089296576296e-05,3.633173887812941e-05
28.0,90.05134503646916,0.020545911052119198,359.9715144686954,0.9602289795875549,3.630664655311954e-05,3.635243892431805e-05
28.1,90.05650182929251,0.023608960745232326,359.968809713784,0.9576907157897949,3.632950891343355e-05,3.637546433865296e-05
28.2,90.05246518749304,0.021141946776328635,359.9709134120484,0.9594700336456299,3.631357938595062e-05,3.635971128877985e-05
28.3,90.04324443211351,0.015556753015642437,359.9757218652241,0.9636853337287903,3.6275769398064256e-05,3.632207212943046e-05
28.4,90.03985665828519,0.013480785719515156,359.9774977144083,0.9651600122451782,3.626258537681306e-05,3.6309043974670064e-05
28.5,90.03759586566991,0.012080596105899217,359.97867250694554,0.9661062955856323,3.625414601680317e-05,3.630076733570298e-05
28.6,90.03993862055523,0.013451712392322976,359.97741575213826,0.9648870825767517,3.6265161073098204e-05,3.631194071318521e-05
28.7,90.03312209176356,0.009313758343525788,359.98099477126334,0.9679718017578125,3.623750584195358e-05,3.628446278528469e-05
28.8,90.04196718673873,0.014589954412861676,359.97635024262775,0.963700532913208,3.6275944139855355e-05,3.632304448208777e-05
28.9,90.04271167735826,0.014999333873659357,359.97594043127754,0.963230311870575,3.628022416529634e-05,3.6327500334705415e-05
29.0,90.03631862029512,0.011114918081029162,359.9792735635925,0.9661151766777039,3.625436518908389e-05,3.630181584435968e-05
29.1,90.03786224304754,0.012003795664612914,359.9784539408921,0.9652708768844604,3.6262014320307756e-05,3.63096186353928e-05
29.2,90.0343651861925,0.0098622120284599,359.98028443158967,0.9667938351631165,3.6248391110685514e-05,3.629616695421517e-05
29.3,90.04316246984348,0.015112202082683155,359.97566722371073,0.9625412225723267,3.6286659861347005e-05,3.63345836527624e-05
29.4,90.04147541311849,0.014058080111673378,359.9765414879245,0.9632126092910767,3.6280683398379084e-05,3.632878618549334e-05
29.5,90.04187839427952,0.014261610077285172,359.9762956011144,0.962902307510376,3.6283532128076694e-05,3.633179657678607e-05
29.6,90.0489203193138,0.018456795308334314,359.9726072989626,0.9594736695289612,3.6314396269188394e-05,3.636281587562212e-05
29.7,90.05629692361741,0.02285481014380106,359.968727751514,0.9558864235877991,3.634668114896944e-05,3.639526437922827e-05
29.8,90.06201379195271,0.026254730236266635,359.9657224682792,0.9530788064002991,3.637196136284864e-05,3.642071056337893e-05
29.9,90.05551828205203,0.022306433998856307,359.96911024210755,0.9560075402259827,3.634570481293394e-05,3.639463392873667e-05
30.0,90.04767039469569,0.017547337944564596,359.97320835560953,0.9595706462860107,3.631375562050993e-05,3.6362849549891856e-05
30.1,90.03829254496526,0.011868123194848267,359.97812609181193,0.9638528823852539,3.6275346012357256e-05,3.632460517272749e-05
30.2,90.03410563900404,0.009313201389623741,359.9803117523463,0.9656944274902344,3.625886643983074e-05,3.630828219160081e-05
30.3,90.03260982757581,0.008373650172350307,359.98107673353337,0.9662731289863586,3.62537296029421e-05,3.630330591994793e-05
30.4,90.028559525398,0.005897732861765467,359.98318043179773,0.9680523872375488,3.6237805252141645e-05,3.628754972576086e-05
30.5,90.03564926175646,0.010123545971728896,359.97946480888925,0.9645935297012329,3.6268943061884964e-05,3.631883711777209e-05
30.6,90.0336343559513,0.008872451583669599,359.9805029976431,0.9654138684272766,3.626162925273942e-05,3.6311700627053314e-05
30.7,90.03875699782881,0.011909748828919665,359.9777982427318,0.9628836512565613,3.628442275346896e-05,3.633464913521956e-05
30.8,90.039125828044,0.012094222299942859,359.97760699743503,0.962581992149353,3.628719016099822e-05,3.633758753154394e-05
30.9,90.03900971482811,0.011984481537156451,359.9776616389484,0.9625106453895569,3.62878911731267e-05,3.6338453598269836e-05
31.0,90.03521895983876,0.009663429511228727,359.97962873342937,0.9641671180725098,3.6273068715873774e-05,3.6323800397290104e-05
31.1,90.04260239433154,0.01406617428604624,359.97574918598076,0.9605697393417358,3.630545076529487e-05,3.635633135965106e-05
31.2,90.0460516398624,0.016100595155618132,359.9739186952832,0.9588219523429871,3.6321209754532645e-05,3.637225988249738e-05
31.3,90.0510854892807,0.019087055349566538,359.9712685818852,0.9563309550285339,3.6343647534983533e-05,3.6394859442614214e-05
31.4,90.04580575305228,0.015872344107378058,359.97402797830995,0.9586828947067261,3.632257370186101e-05,3.6373963269539016e-05
31.5,90.0483056022885,0.017336869400550355,359.9727165819893,0.9573806524276733,3.633433577874911e-05,3.6385878070292527e-05
31.6,90.05325748943676,0.020275231455724387,359.970093789348,0.9549267888069153,3.635644051789218e-05,3.6408142717315756e-05
31.7,90.05691847083189,0.022438001851764998,359.9681540156237,0.95307856798172,3.63731026765367e-05,3.6424969854553576e-05
31.8,90.04690541350864,0.01637725950516997,359.9733996009063,0.9576515555381775,3.633207452898163e-05,3.638412338909692e-05
31.9,90.04922084763727,0.017730332319446724,359.9721701668557,0.9564350247383118,3.634306928636636e-05,3.639526415722366e-05
32.0,90.04357911138285,0.014298103898082469,359.9751208085771,0.9589550495147705,3.6320486927894094e-05,3.63728556782238e-05
32.1,90.04625654553749,0.015866079209743356,359.97370012922977,0.9575695991516113,3.633299697284076e-05,3.6385517633167434e-05
32.2,90.04238382827809,0.013500501720894953,359.9757218652241,0.959256112575531,3.631790273409551e-05,3.637059566599899e-05
32.3,90.0515157911984,0.018952320863544113,359.9709134120484,0.9548361897468567,3.635767468694671e-05,3.641051324154308e-05
32.4,90.04351080949115,0.014096483250488172,359.9751208085771,0.958465576171875,3.6325121582265796e-05,3.637814688074768e-05
32.5,90.04476756429843,0.014816212766751612,359.97443778966016,0.9577407836914062,3.633169723356558e-05,3.6384873122706564e-05
32.6,90.04708299842706,0.01616863357810711,359.97320835560953,0.9565210342407227,3.634271510113576e-05,3.6396052708829504e-05
32.7,90.05193926292695,0.01904670287209458,359.97064020448164,0.9541096091270447,3.636443857551684e-05,3.641793597438178e-05
32.8,90.06113269754978,0.02453780310634125,359.9658317513059,0.9496577382087708,3.640449256849394e-05,3.6458147029550484e-05
32.9,90.05797031996407,0.022597777585533052,359.9674709967067,0.9510070085525513,3.6392424089927814e-05,3.6446258087966156e-05
33.0,90.05849624453016,0.022872410887621736,359.96717046838324,0.9506282210350037,3.6395888071943674e-05,3.644987930859462e-05
33.1,90.06724571685695,0.02809865452854529,359.962580581261,0.946383535861969,3.6434083374516205e-05,3.648822535031846e-05
33.2,90.06852296223174,0.02882782057813713,359.961897562344,0.945648193359375,3.644074381114317e-05,3.649505789852325e-05
33.3,90.06908303774368,0.029123446373258352,359.96159703402054,0.9452518820762634,3.644436259947404e-05,3.649883926019832e-05
33.4,90.0586669992594,0.022820345702940264,359.96703386459984,0.9500057101249695,3.640171075429945e-05,3.645636373552431e-05
33.5,90.06251239576213,0.025092179012182907,359.9650121286055,0.9480659365653992,3.6419203196898894e-05,3.647399807876167e-05
33.6,90.06998462271412,0.029546617947001634,359.9610779396436,0.9444214701652527,3.6452003624614446e-05,3.6506955063686745e-05
33.7,90.06341398073256,0.025554740900519457,359.96452035498527,0.9473684430122375,3.6425581544607545e-05,3.6480713790555176e-05
33.8,90.06925379247292,0.02903007822091281,359.9614331094804,0.9444879293441772,3.6451523897356745e-05,3.650680052194692e-05
33.9,90.06268998068055,0.025039862030976856,359.9648755248221,0.947432816028595,3.642512117547443e-05,3.648057598758756e-05
34.0,90.05578465942966,0.020849572658180437,359.9684818647039,0.9505351781845093,3.639731075719576e-05,3.645292740425006e-05
34.1,90.04624971534832,0.015077205700820105,359.9734542424197,0.9548733234405518,3.635839810693509e-05,3.641417988798141e-05
34.2,90.05320967811257,0.01922013231409605,359.9697932610245,0.9514667391777039,3.638906887877213e-05,3.644499011450314e-05
34.3,90.06025843333602,0.02342149906644725,359.966077638116,0.9480135440826416,3.642014955225399e-05,3.647623293706735e-05
34.4,90.0657977167529,0.02671509932705471,359.9631543171513,0.9452692866325378,3.644485986710198e-05,3.650110751679006e-05
34.5,90.07206783041097,0.030445601575864893,359.9598758263497,0.9421844482421875,3.6472630924180094e-05,3.652903923348292e-05
34.6,90.06220503724947,0.024472277646518093,359.9650121286055,0.9466723203659058,3.6432365590102014e-05,3.6488957170333736e-05
34.7,90.05290231959991,0.018837815143347227,359.96990254405125,0.9508974552154541,3.6394469309619626e-05,3.645122120017404e-05
34.8,90.05932269741973,0.022661672204289735,359.96651477022294,0.9477365016937256,3.642293313931923e-05,3.647982476910443e-05
34.9,90.0621982070603,0.024351258567215237,359.96498480784885,0.9462406635284424,3.643642745069109e-05,3.649348556171699e-05
35.0,90.0646570751615,0.025790215674219612,359.9636734115282,0.9449409246444702,3.644816239743817e-05,3.6505382723208726e-05
35.1,90.06640560358903,0.026800475024153215,359.9627445058011,0.9439758658409119,3.6456890271678634e-05,3.6514272875790983e-05
35.2,90.07056518879357,0.029263742060667987,359.9605588452667,0.9418768286705017,3.6475806358516883e-05,3.653334672662091e-05
35.3,90.08063288763017,0.03528176570947068,359.95525861847074,0.9370039701461792,3.651964230538799e-05,3.6577335382237816e-05
35.4,90.07588590615701,0.03238634913571377,359.95774480732865,0.9390842318534851,3.6501005329332877e-05,3.655887911225697e-05
35.5,90.08499054832063,0.0378277554081793,359.9529636749096,0.9346614480018616,3.654080219679203e-05,3.6598817092615354e-05
35.6,90.08778409569118,0.03946963216604053,359.9514883540489,0.933201253414154,3.6553974333033505e-05,3.661215754576111e-05
35.7,90.08904768068763,0.04019126766526816,359.9508053351319,0.93245929479599,3.656069689198491e-05,3.661904168462185e-05
35.8,90.09266085075856,0.0423243810997881,359.9488928821643,0.9306168556213379,3.6577307525434146e-05,3.663580818913592e-05
35.9,90.09947054936106,0.04638522538110489,359.9453138630392,0.9272713661193848,3.660742032175354e-05,3.666607543270057e-05
36.0,90.10076828530336,0.04712536042101907,359.94463084412223,0.9265143275260925,3.661427619277191e-05,3.667309738199844e-05
36.1,90.1000989267647,0.0466829022340091,359.94495869320235,0.9266794919967651,3.661284920507694e-05,3.667183128008109e-05
36.2,90.10442243650932,0.04924695124636792,359.9426910703979,0.924501359462738,3.663247586767388e-05,3.669160903621034e-05
36.3,90.10504398372379,0.04958179726836383,359.9423359005611,0.9240602850914001,3.663649412769664e-05,3.669579014722679e-05
36.4,90.10733209709575,0.05092268213033502,359.9411337872672,0.9228354692459106,3.6647555226266103e-05,3.670700660213334e-05
36.5,90.11196979554218,0.05367729608857984,359.938674919166,0.9205090403556824,3.6668513075786286e-05,3.672811864391589e-05
36.6,90.10816538017448,0.05134536011618906,359.9406693344036,0.9221454858779907,3.6653865531023775e-05,3.67136398791412e-05
36.7,90.101396662707,0.047230678069358836,359.9441937120153,0.9251719117164612,3.6626734181887694e-05,3.668666969709708e-05
36.8,90.10355500248473,0.04849183181195136,359.94304624023476,0.9240086078643799,3.6637247097457846e-05,3.669732756543079e-05
36.9,90.10901915382074,0.05174184792843367,359.94017756078335,0.921294629573822,3.666168684546794e-05,3.672192014783578e-05
37.0,90.11488628631778,0.0552377275096633,359.9370903152785,0.9183890223503113,3.6687845876202595e-05,3.67482359589536e-05
37.1,90.10834979528208,0.05126155356167087,359.94050540986353,0.9213045835494995,3.666170568137756e-05,3.672226976558047e-05
37.2,90.10211383256986,0.04746951457679111,359.94375657990844,0.9240778088569641,3.6636850303905e-05,3.669757081507507e-05
37.3,90.10055654943909,0.046491756988847915,359.94454888185214,0.9246576428413391,3.6631701912961065e-05,3.66925729637645e-05
37.4,90.10767360655424,0.05074093506538921,359.940805938187,0.921163022518158,3.666315740471653e-05,3.672417382700468e-05
37.5,90.10442243650932,0.0487417640417316,359.94249982510115,0.9225369095802307,3.6650867342041663e-05,3.6712055288419415e-05
37.6,90.09601447364103,0.0436441584093877,359.94689846692665,0.9263266324996948,3.661687779020837e-05,3.667823004695837e-05
37.7,90.10490737994039,0.048958412439521246,359.94222661753435,0.921999990940094,3.665581225701919e-05,3.6717298086193466e-05
37.8,90.09826843606714,0.04492287787774119,359.945669032876,0.9249590039253235,3.662928008417271e-05,3.669094453227942e-05
37.9,90.09271549227192,0.04154198759943777,359.94856503308415,0.9274091124534607,3.6607328218161976e-05,3.666914870069509e-05
38.0,90.09988719090043,0.04581751593214717,359.9447947686623,0.9238894581794739,3.663901078437643e-05,3.67009713407102e-05
38.1,90.09453915278031,0.04256033945621759,359.94758148584367,0.9262408018112183,3.661793901600224e-05,3.6680074359584606e-05
38.2,90.09725073788081,0.04415191360506939,359.94616080649627,0.9248127937316895,3.663082909934719e-05,3.669311113508027e-05
38.3,90.09425228483518,0.04231004704068034,359.9477180896271,0.9260608553886414,3.6619672022865344e-05,3.6682119435534846e-05
38.4,90.1001672286564,0.045827884612874493,359.9446035233655,0.9231306910514832,3.664605728201018e-05,3.6708650169918665e-05
38.5,90.09942273803688,0.0453419473359185,359.94495869320235,0.9233208298683167,3.664440324974512e-05,3.670716275435692e-05
38.6,90.10890304060484,0.05101208823935342,359.9399863154866,0.9187130331993103,3.6685859210172105e-05,3.674876211644182e-05
38.7,90.10528304034474,0.04878992888157209,359.9418714476975,0.9202545881271362,3.66720607783429e-05,3.673513866038955e-05
38.8,90.10554258753321,0.0489099207644568,359.94170752315745,0.9199720025062561,3.667465914668229e-05,3.673788856422623e-05
38.9,90.11028273881719,0.05172523936297143,359.93922133429953,0.9175885319709778,3.6696129816560675e-05,3.6759509721847045e-05
39.0,90.1040399459158,0.047924482548750647,359.9424725043445,0.9203601479530334,3.667128338405198e-05,3.673483493595134e-05
39.1,90.11379345605057,0.0537595018175113,359.9373635228453,0.9156230688095093,3.67139035412909e-05,3.6777589732167096e-05
39.2,90.11423741834663,0.05398893013956828,359.93711763603517,0.9152522087097168,3.671728715800867e-05,3.678114241614524e-05
39.3,90.10378722891652,0.04765471008685498,359.9425817873712,0.9199959635734558,3.66747237582732e-05,3.6738750201726844e-05
39.4,90.10546062526316,0.04862574087228064,359.94168020240073,0.9190472364425659,3.668331047411142e-05,3.67474764647222e-05
39.5,90.10787851222935,0.050040407118533164,359.9403961268368,0.9177517890930176,3.669500571728388e-05,3.675932701637084e-05
39.6,90.10384870061904,0.04757453207033336,359.94249982510115,0.9194803237915039,3.6679531570965304e-05,3.674401821140494e-05
39.7,90.10061119095245,0.045586743583608,359.94416639125865,0.9208368062973022,3.666740357949728e-05,3.673204561710266e-05
39.8,90.09471673769873,0.04200117441382899,359.9472536367635,0.9234388470649719,3.664408499274212e-05,3.670888723649421e-05
39.9,90.10374624778149,0.04739901822001585,359.94249982510115,0.9190371036529541,3.668369204730283e-05,3.6748630687873205e-05
40.0,90.10949043687347,0.050814493001099074,359.9394672211097,0.9161797165870667,3.6709416526143136e-05,3.677451650436573e-05
40.1,90.10407409686165,0.0475142676570999,359.9423085798044,0.9185558557510376,3.668812218653112e-05,3.6753394083404444e-05
40.2,90.09402005840339,0.041423749954591846,359.94755416508696,0.9231080412864685,3.6647283418008765e-05,3.67127180302155e-05
40.3,90.08838515233813,0.037993567588430616,359.95047748605174,0.9255866408348083,3.662507759277034e-05,3.669066268887552e-05
40.4,90.07760028363869,0.03146422690701577,359.9561328826845,0.9304823279380798,3.6581153330760395e-05,3.664690254574354e-05
40.5,90.07154190584488,0.027781542652502288,359.9592747697027,0.933157742023468,3.6557179954877404e-05,3.662308042188239e-05
40.6,90.074840887214,0.029724706458471122,359.9575535620319,0.9314422607421875,3.657265391526005e-05,3.663869982581242e-05
40.7,90.07075643409033,0.027230219987961973,359.95965726029624,0.9331889748573303,3.655701714227403e-05,3.662323178860161e-05
40.8,90.0654562072944,0.024001901728286357,359.9624166567209,0.9355090856552124,3.653623227068239e-05,3.6602607403424635e-05
40.9,90.06899424528447,0.02609125259332929,359.9605588452667,0.9336782693862915,3.655274215327277e-05,3.661926406869562e-05
41.0,90.07393930224356,0.029024131820868798,359.95793605262537,0.9311884641647339,3.6575167620410785e-05,3.664184662825091e-05
41.1,90.0744515664313,0.029291579750610416,359.95766284505856,0.9307786822319031,3.657890443192138e-05,3.664574845327106e-05
41.2,90.07620009485883,0.030305135800736672,359.95673393933146,0.9297870397567749,3.6587871056451e-05,3.6654872052782144e-05
41.3,90.08544134080586,0.035823335010618566,359.95187084464243,0.9252806901931763,3.662841467691246e-05,3.669556382887736e-05
41.4,90.09187537900401,0.03965649520275724,359.94848307081406,0.9220885634422302,3.6657146585248746e-05,3.6724457668027495e-05
41.5,90.09696386993566,0.04267988110690603,359.94580563665943,0.9195283651351929,3.668020178621184e-05,3.674767233837711e-05
41.6,90.0956797943717,0.041866715069704276,359.9464613348198,0.9199596047401428,3.667638177856986e-05,3.6744018116101636e-05
41.7,90.09494213394134,0.04138404280993453,359.9468165046566,0.9201337099075317,3.6674875576181316e-05,3.67426678974016e-05
41.8,90.10116443627523,0.04509042762076476,359.94356533461166,0.9170415997505188,3.670271353026421e-05,3.677065289503136e-05
41.9,90.09727805863749,0.04270912285429015,359.945587070606,0.9186946153640747,3.668791583294903e-05,3.6756025519530884e-05
42.0,90.10567919131661,0.04772730752721281,359.94116110802383,0.9145798087120056,3.672494398986118e-05,3.6793193210630795e-05
42.1,90.10391017232158,0.046623011346745874,359.9420626929943,0.9152359962463379,3.6719101028182604e-05,3.6787520244784385e-05
42.2,90.09923149274012,0.043767682113723116,359.9444942403388,0.9172578454017639,3.670099333488569e-05,3.676957253352589e-05
42.3,90.1066149272329,0.048171163101557855,359.9406146928902,0.9136213660240173,3.6733724400079664e-05,3.680244292667621e-05
42.4,90.09886266252494,0.04346670355804629,359.9446581648789,0.9170826077461243,3.6702680325396443e-05,3.677157540318518e-05
42.5,90.09251058659682,0.03960656278466475,359.94796397643717,0.9198870658874512,3.667754484673633e-05,3.6746593960707275e-05
42.6,90.10203870048899,0.045300879489512474,359.94296427796473,0.9152412414550781,3.6719345132618596e-05,3.678852850799988e-05
42.7,90.09803620963535,0.0428498454285229,359.9450406554724,0.9169438481330872,3.670410038250604e-05,3.6773458440484164e-05
42.8,90.09046152984581,0.03825426203522825,359.949002165191,0.920319676399231,3.667382959242329e-05,3.674334872472527e-05
42.9,90.09277696397444,0.039609490961467125,359.9477727311404,0.9190550446510315,3.6685252513550805e-05,3.675491424497794e-05
43.0,90.08647269937053,0.03577411962898679,359.951051221942,0.9218373894691467,3.666031063402646e-05,3.673014055030855e-05
43.1,90.0868210390182,0.03594236973320455,359.95085997664523,0.9214977025985718,3.666342318460351e-05,3.673340063767124e-05
43.2,90.07669186847907,0.02981189475704126,359.9561602034412,0.9260707497596741,3.662239424081041e-05,3.669254276204644e-05
43.3,90.08166424619483,0.03275998516270793,359.9535374107999,0.9235608577728271,3.664500707521753e-05,3.671529201112857e-05
43.4,90.0857486993185,0.03518079697064152,359.9513790710222,0.9214612245559692,3.666392565542377e-05,3.6734368954466945e-05
43.5,90.08259998211113,0.033246269285207714,359.9529909956663,0.9227590560913086,3.6652320302993886e-05,3.672293074418311e-05
43.6,90.08038700082005,0.03187358468996696,359.95413846744685,0.9236192107200623,3.664465134767656e-05,3.6715417543120125e-05
43.7,90.08033235930668,0.031799499815834804,359.95416578820357,0.923466145992279,3.664608543773093e-05,3.671700567779537e-05
43.8,90.073153830489,0.027444055268288286,359.9579087318687,0.9266533255577087,3.6617507571832904e-05,3.668859469670328e-05
43.9,90.06572258467203,0.022933439028062195,359.96178827931726,0.9299625158309937,3.658783786428657e-05,3.665908270217247e-05
44.0,90.06085265979381,0.019962011586889098,359.96432910968855,0.9320703148841858,3.656896238637877e-05,3.664036140193413e-05
44.1,90.0511059798482,0.014061238407153847,359.969410770431,0.9364655613899231,3.652953425007767e-05,3.6601098121386075e-05
44.2,90.0454369228371,0.01061484351311043,359.97236141215245,0.9389443397521973,3.650732756844874e-05,3.657904457443775e-05
44.3,90.05079862133555,0.013798229433362078,359.9695473742144,0.936242938041687,3.65316595867929e-05,3.660352066410406e-05
44.4,90.04621556440247,0.011000003816802334,359.9719242800456,0.9382133483886719,3.651401192862859e-05,3.6586046110535575e-05
44.5,90.0503546590395,0.013448361497514104,359.9697386195112,0.9360855221748352,3.6533189861543646e-05,3.660537165561498e-05
44.6,90.04687126256279,0.011311403580296054,359.97156911020875,0.9375389814376831,3.652018715080558e-05,3.659253880669694e-05
44.7,90.03709726186051,0.005395438815871813,359.9766780917079,0.9419459104537964,3.6480653722549756e-05,3.6553173513828204e-05
44.8,90.02814288385862,-2.501969854621426e-05,359.9813499411002,0.9459665417671204,3.6444594510186664e-05,3.65172728748858e-05
44.9,90.0362093372684,0.004783198484531789,359.9770879030581,0.9419898986816406,3.648038586905907e-05,3.655320108092322e-05
45.0,90.04064213003974,0.007406327966200558,359.9747383179836,0.939720094203949,3.650083294976583e-05,3.657381359605897e-05
45.1,90.04385231894965,0.009293143545280115,359.97304443106947,0.9380261301994324,3.651610802994269e-05,3.658925073752323e-05
45.2,90.04240431884561,0.008382565603599691,359.9737820914998,0.9385181665420532,3.651174369358211e-05,3.6585052719454964e-05
45.3,90.04091533760655,0.007446825518491312,359.97454707268685,0.9390302300453186,3.650720173739854e-05,3.6580670551351714e-05
45.4,90.04119537536252,0.007574950762625226,359.9743831481468,0.9387109875679016,3.6510129424576804e-05,3.65837554785132e-05
45.5,90.04439873408325,0.009459030764230807,359.97268926123263,0.9370193481445312,3.652538576477581e-05,3.659916750561989e-05
45.6,90.03822424307356,0.005707174585986079,359.9759131105209,0.9397314190864563,3.650107565058573e-05,3.65750298824166e-05
45.7,90.04543009264792,0.00999895671786232,359.97211552534236,0.9361578822135925,3.653324348419634e-05,3.6607339015408726e-05
45.8,90.03742511094066,0.005145516591251492,359.9762956011144,0.9397292137145996,3.6501211470208466e-05,3.657548737251574e-05
45.9,90.03084763876994,0.0011534677895240742,359.97973801645605,0.942628800868988,3.647522290729558e-05,3.6549656543738665e-05
46.0,90.02289046838688,-0.0036718069781570403,359.98389077147147,0.946179986000061,3.64433796647591e-05,3.6517975020854056e-05
46.1,90.01722824156494,-0.007112780743052091,359.9868414131929,0.9486489295959473,3.642126099132105e-05,3.6496013561332766e-05
46.2,90.01108107131192,-0.010850937772962114,359.99006526248115,0.9513502717018127,3.6397052793382185e-05,3.647196691467905e-05
46.3,90.00017325920741,-0.017444473227931155,359.9957479798706,0.9562863707542419,3.635276760549325e-05,3.6427849631928264e-05
46.4,90.00089725925943,-0.01704759688197643,359.99536548927705,0.9557510018348694,3.6357642663284214e-05,3.643287064749657e-05
46.5,90.01016582596314,-0.011522442418425564,359.9904750738313,0.9512007236480713,3.639858330357378e-05,3.647396185826548e-05
46.6,90.00907299569594,-0.012222421749012825,359.9910214889649,0.951521098613739,3.639575889649508e-05,3.6471314008346814e-05
46.7,89.99831544775317,-0.018726055839547565,359.996649564841,0.9563841819763184,3.635212636916238e-05,3.642785686218737e-05
46.8,90.00456507084374,-0.01501075809875793,359.99337107403943,0.9532485008239746,3.638036396801162e-05,3.6456233204118e-05
46.9,90.01198265628237,-0.010597392012925184,359.98946420583417,0.9495653510093689,3.641351040530802e-05,3.648954020404953e-05
47.0,90.01555484521829,-0.00849370959006446,359.9875517528666,0.9476895928382874,3.6430418014171626e-05,3.650661519446294e-05
47.1,90.02207084568647,-0.004617750658854117,359.9841093375249,0.9444278478622437,3.645977932994397e-05,3.653613408093699e-05
47.2,90.0271661668073,-0.001599953887163969,359.9814319033702,0.9418373703956604,3.64831084002193e-05,3.655962621657588e-05
47.3,90.02810873291277,-0.0010742677773843425,359.9809128089933,0.9411957859992981,3.648892788873811e-05,3.65656120759647e-05
47.4,90.03272594079169,0.0016598558217912711,359.97848126164877,0.9388278722763062,3.651026006678825e-05,3.6587099512061684e-05
47.5,90.02939280847673,-0.00038522635338041777,359.98020246931964,0.9401960372924805,3.649802352278984e-05,3.657503385742973e-05
47.6,90.03297865779099,0.0017307338337291971,359.9783173371087,0.9383115172386169,3.6515015127404854e-05,3.659217584520466e-05
47.7,90.04303269624924,0.007733246566488888,359.97301711031275,0.9333884119987488,3.655930224326704e-05,3.6636613764568886e-05
47.8,90.05254714976307,0.013412980750757574,359.9680174118403,0.9287177920341492,3.6601317665214314e-05,3.667878930874054e-05
47.9,90.04325126230269,0.007781573156414703,359.9728531857727,0.9328835010528564,3.656394336282171e-05,3.664159960758516e-05
48.0,90.04657073423931,0.009738013809593412,359.97110465734517,0.9311215281486511,3.657983637296068e-05,3.665763377272542e-05
48.1,90.03922828088155,0.005280473692082073,359.9749295632804,0.9343702793121338,3.655070440319666e-05,3.6628674723808775e-05
48.2,90.03036952552804,-8.224325479493173e-05,359.979574091916,0.9383277297019958,3.6515210923803134e-05,3.659334195608728e-05
48.3,90.03191314828047,0.0008040715031678132,359.9787271484589,0.9373996257781982,3.652361266933735e-05,3.6601888336088816e-05
48.4,90.02582061954081,-0.002898840839738511,359.98192367699045,0.9400586485862732,3.6499779972967815e-05,3.657822536699818e-05
48.5,90.01795224161695,-0.00766734424564219,359.9860217904925,0.9435519576072693,3.646845665297403e-05,3.654706409457672e-05
48.6,90.00750888237602,-0.013982131776506675,359.9914859418285,0.9482554793357849,3.642626123833681e-05,3.6505032106033486e-05
48.7,89.9975572967553,-0.02000078991920078,359.9966768855977,0.9527280330657959,3.638614252457961e-05,3.646507321331383e-05
48.8,89.98830239042994,-0.025600622896372216,0.0015272319034092545,0.9568731188774109,3.634896569146084e-05,3.6428056623234094e-05
48.9,89.98213472960941,-0.02934737519241428,0.004747167402380653,0.959567129611969,3.632482612219753e-05,3.640407476229017e-05
49.0,89.98850046591586,-0.025563787232611088,0.0013833791732082935,0.956361711025238,3.635368782625662e-05,3.643308180402353e-05
49.1,89.98673144692083,-0.026668932184144317,0.002293236222272613,0.9569843411445618,3.6348149815144866e-05,3.642771775238727e-05
49.2,89.99203850390593,-0.02352675168124755,359.99949092353575,0.9542809128761292,3.637249846960674e-05,3.645221951654217e-05
49.3,89.99024899434339,-0.024642790584403752,0.0004098466548666181,0.9549117088317871,3.636688764671435e-05,3.6446780937006525e-05
49.4,89.99514623997828,-0.02174224136360941,359.99782435737825,0.9523975253105164,3.6389536189465996e-05,3.646958273048578e-05
49.5,90.00291216506459,-0.01711828166926346,359.99372624387627,0.9485336542129517,3.6424306898238114e-05,3.6504511641899775e-05
49.6,89.99373922100926,-0.02267184411687203,359.99850737629527,0.9526366591453552,3.638749836968664e-05,3.6467888237975835e-05
49.7,90.00326050471226,-0.016994681258702016,359.99350767782283,0.9479473233222961,3.642969316357567e-05,3.651021908032818e-05
49.8,90.00188080649993,-0.017865597078944754,359.9942180174965,0.9483823180198669,3.642583887168578e-05,3.65065411718633e-05
49.9,89.9944837116288,-0.02234766693040096,359.9980702441884,0.9516451358795166,3.6396583557445776e-05,3.647745558865917e-05
50.0,89.98623284311142,-0.027345466089992713,0.0023797022733612417,0.9553126692771912,3.6363696065682995e-05,3.6444730674486585e-05
50.1,89.98301582401234,-0.02931898388362311,0.004048788897380113,0.9566115140914917,3.635209053869107e-05,3.643328000787151e-05
50.2,89.97333061576927,-0.035177325180150314,0.009115400211827763,0.9609536528587341,3.63131402370957e-05,3.639450083096915e-05
50.3,89.97738091794709,-0.032787022439857,0.006968124890326958,0.9588319659233093,3.6332267092933074e-05,3.641377157885811e-05
50.4,89.98180005034008,-0.030177113109491907,0.004628732572508026,0.9565371870994568,3.635294146832636e-05,3.643460837952869e-05
50.5,89.97568020084375,-0.033890734985995444,0.00781931428714832,0.9591968059539795,3.632910351279435e-05,3.6410947871441126e-05
50.6,89.98007884266924,-0.03129298192492952,0.005490630408612233,0.9569115042686462,3.634969811176141e-05,3.643169091245548e-05
50.7,89.97181431377352,-0.03629780303925636,0.009810715470367045,0.9605823159217834,3.631677480411549e-05,3.639894774153753e-05
50.8,89.9620949545846,-0.0421741636287941,0.014894811635532997,0.9649378061294556,3.627770772164499e-05,3.636004567035956e-05
50.9,89.96657555868012,-0.03952465054042418,0.012519360721373158,0.9626085758209229,3.629869917577177e-05,3.638118088785926e-05
51.0,89.974484917739,-0.03482094471895969,0.008347082303954012,0.9586681723594666,3.633415885509499e-05,3.6416799432080564e-05
51.1,89.96568080389885,-0.040146447883893266,0.012948121844456742,0.9625877737998962,3.62989985221857e-05,3.63818255769521e-05
51.2,89.96840604937769,-0.038552956079390695,0.011496594921543292,0.9610846638679504,3.6312567553254963e-05,3.639554218269587e-05
51.3,89.96020982237367,-0.04351685275460366,0.01578210423503323,0.9647210836410522,3.6279954327877596e-05,3.636310723425189e-05
51.4,89.96715612475957,-0.039390658103762265,0.012114098383881328,0.9612306952476501,3.631137742528423e-05,3.639467315014407e-05
51.5,89.974484917739,-0.03503253717593795,0.008243654797075239,0.9575576782226562,3.634443357762368e-05,3.6427892273383836e-05
51.6,89.98236695604119,-0.030344326012131606,0.004085581622329931,0.9536263346672058,3.637980962209024e-05,3.646343090788363e-05
51.7,89.97906114448291,-0.03237034754995317,0.005799359211289774,0.9549554586410522,3.636792261714536e-05,3.64517220037934e-05
51.8,89.97584412538383,-0.034343388430960846,0.007467274397835029,0.9562441110610962,3.6356405928962104e-05,3.6440367587845955e-05
51.9,89.96900027583548,-0.03849672041055048,0.011042611624072251,0.959241509437561,3.6329537080675016e-05,3.641366601079641e-05
52.0,89.96955352115825,-0.03820569031888447,0.01073015548244396,0.9587554335594177,3.633396736094456e-05,3.641824870311646e-05
52.1,89.96033276577873,-0.043780392001871025,0.015549836115086476,0.9628669619560242,3.6297086644977293e-05,3.638154420197827e-05
52.2,89.95724552027389,-0.04567738699740282,0.01715198238291726,0.9640956521034241,3.6286112588992496e-05,3.6370724915098814e-05
52.3,89.95843397318947,-0.04500682450449822,0.016506812985882035,0.9633101224899292,3.629323133942631e-05,3.637800120221416e-05
52.4,89.94896050081066,-0.05073317439634691,0.021460837903310215,0.9675412178039551,3.6255276497851576e-05,3.6340224705483286e-05
52.5,89.9559204635749,-0.04659839198324342,0.017783066182315985,0.9640371799468994,3.628682318709234e-05,3.637191277798506e-05
52.6,89.96125484131669,-0.043441477214842206,0.014961395974780705,0.9612990021705627,3.631147984692541e-05,3.639673558842918e-05
52.7,89.95577702960233,-0.04677320213731343,0.017818611180447818,0.9636492729187012,3.629042104157509e-05,3.637585550149551e-05
52.8,89.96031227521122,-0.044095074291580855,0.015416218871921449,0.9612868428230286,3.63117083061692e-05,3.639729264490591e-05
52.9,89.95959510534837,-0.04456764800994103,0.015771040195691668,0.9613944292068481,3.6310798931681645e-05,3.6396553923371996e-05
53.0,89.95561993525142,-0.04699395265066905,0.0178360101535435,0.9630346298217773,3.629612285291947e-05,3.6382045797994444e-05
53.1,89.95178819912705,-0.04933794150570653,0.01982922310447053,0.9646105766296387,3.628202568811677e-05,3.636811187823507e-05
53.2,89.95534672768463,-0.04724335460697369,0.01793704059085882,0.9627046585083008,3.6299210606112776e-05,3.638545022419914e-05
53.3,89.95736846367895,-0.04607288763386895,0.01685370855547133,0.9615231156349182,3.630988410042719e-05,3.639628949202864e-05
53.4,89.9599980865094,-0.04453778927769536,0.015451418692036145,0.9600557088851929,3.632312592639367e-05,3.640969407875073e-05
53.5,89.96548955860209,-0.04128616566551972,0.012547231761848646,0.9572423696517944,3.634846017185659e-05,3.6435187723706255e-05
53.6,89.97086491747889,-0.038105605369181304,0.009705716319617974,0.954484760761261,3.63732920107105e-05,3.646018274202909e-05
53.7,89.9718894458544,-0.03753228636056344,0.009145464049851728,0.9537709951400757,3.637976104556976e-05,3.6466820376180216e-05
53.8,89.9669922002195,-0.04051427424802895,0.011695867691610398,0.9558443427085876,3.636119118635334e-05,3.644842094067178e-05
53.9,89.9651685397111,-0.04164919622300185,0.012630448845695056,0.956470251083374,3.635562978645001e-05,3.6443017504047795e-05
54.0,89.9573343127331,-0.04639551735560619,0.016725595817787313,0.9599275588989258,3.6324628101267394e-05,3.641218636841795e-05
54.1,89.95511450125284,-0.047771200163768734,0.017871096581845804,0.9607419967651367,3.63173749844254e-05,3.6405088168264595e-05
54.2,89.96212227534127,-0.04360847333901703,0.014168892260334232,0.9572119116783142,3.634915092932347e-05,3.64370142991704e-05
54.3,89.97077612501968,-0.03845739679702332,0.009602643995916255,0.952906608581543,3.638788716241815e-05,3.6475911183865446e-05
54.4,89.98003103134505,-0.03294545748219617,0.004722125320871701,0.9483188986778259,3.6429159230398445e-05,3.651734497485502e-05
54.5,89.97333744595844,-0.03700406060769155,0.008213219100607691,0.9512308239936829,3.6403050908441346e-05,3.649142042799515e-05
54.6,89.9710015212623,-0.03844795859616828,0.009417717791406816,0.9520947933197021,3.6395350835431534e-05,3.648387591763695e-05
54.7,89.97462835171157,-0.036314098109707864,0.0074920846931392365,0.9501540064811707,3.6412847869744204e-05,3.650152618989024e-05
54.8,89.97582363481632,-0.035637782649850985,0.00684147123846417,0.9493551254272461,3.642008205796316e-05,3.650892524449381e-05
54.9,89.97332378558009,-0.037181008530930496,0.008132565005226687,0.9502959847450256,3.641168712420836e-05,3.6500696843034e-05
55.0,89.97621978578819,-0.03548761853970988,0.006592394449856838,0.9487003684043884,3.6426083158138246e-05,3.65152468091892e-05
55.1,89.98155416352996,-0.03232606137710717,0.003768170842134404,0.9459538459777832,3.645081629013456e-05,3.654013781242931e-05
55.2,89.99042657926181,-0.027042820007663053,359.99908111218554,0.9415450692176819,3.649048164210907e-05,3.657995935616648e-05
55.3,89.99378703233346,-0.025069614041516742,359.99730526300135,0.9397290349006653,3.650685136166508e-05,3.65964972124174e-05
55.4,89.99466129654722,-0.024583011421426264,359.9968134893811,0.9390776753425598,3.651275926890272e-05,3.660256859534049e-05
55.5,90.00012544788322,-0.021345314991855102,359.9939448099297,0.9362723231315613,3.653802169769134e-05,3.662798439425972e-05
55.6,90.00000250447816,-0.02146245707169012,359.99397213068636,0.9360933303833008,3.65396847825665e-05,3.662981450271793e-05
55.7,90.0051866180582,-0.018391766771453703,359.99124005501835,0.9334189891815186,3.65637699547211e-05,3.665405154134065e-05
55.8,90.009878958018,-0.015613899154035096,359.9887538661605,0.9309736490249634,3.658579481582796e-05,3.667623588354387e-05
55.9,90.01254956198348,-0.014053102544614665,359.98733318681315,0.9294809699058533,3.659926025021667e-05,3.668986262756847e-05
56.0,90.00746790124099,-0.017144761992510485,359.9899559794544,0.931629478931427,3.658001356143309e-05,3.667078473766936e-05
56.1,90.00887492021002,-0.016343387036270928,359.9892183190241,0.930731475353241,3.6588141719502496e-05,3.667906204836837e-05
56.2,90.00384107079171,-0.019409348230919905,359.99184111166534,0.9328598976135254,3.656907574569043e-05,3.666016292380339e-05
56.3,90.00357469341408,-0.019610800458322263,359.991950394692,0.9327465295791626,3.6570155192675385e-05,3.666139403733878e-05
56.4,90.00113631588039,-0.021117737624382772,359.9932071494993,0.9336547255516052,3.65620535083353e-05,3.665345359222005e-05
56.5,90.00425088214192,-0.019286106338588817,359.9915405833419,0.931949257850647,3.657743495870477e-05,3.6668985833357813e-05
56.6,89.99956537237128,-0.022144600537198654,359.9939994514431,0.9339150190353394,3.6559829536059405e-05,3.665154950506049e-05
56.7,89.99752997599862,-0.023408944258278053,359.9950376401969,0.9346333146095276,3.6553436387915957e-05,3.664531116923434e-05
56.8,90.00658680683806,-0.01800980645140859,359.9902565077779,0.9301338791847229,3.6593920115592184e-05,3.6685938125472886e-05
56.9,90.00856756169736,-0.016864384061102782,359.98919099826736,0.9289634823799133,3.660448811669402e-05,3.669667421818482e-05
57.0,90.0168252604039,-0.011946242649716962,359.98484699795523,0.924841046333313,3.664158188706598e-05,3.6733917485371004e-05
57.1,90.00980382593714,-0.016205972834917395,359.98850797935035,0.9278996586799622,3.6614155056823574e-05,3.6706669193816216e-05
57.2,90.00302144809132,-0.020320259677930892,359.9920323569621,0.9308459162712097,3.658774568109723e-05,3.6680416953062125e-05
57.3,90.01248126009177,-0.014677272778510735,359.98705997924634,0.926153838634491,3.6629962576939554e-05,3.672276903596776e-05
57.4,90.00352005190072,-0.020103803045706324,359.9917318286386,0.9301237463951111,3.6594347427248235e-05,3.668733675898092e-05
57.5,90.01093763733935,-0.015691619236270438,359.9878249604334,0.9263931512832642,3.662792665782084e-05,3.6721051241007595e-05
57.6,90.00061722150346,-0.021929546294889118,359.9932071494993,0.9309968948364258,3.658661814095094e-05,3.667992451312905e-05
57.7,89.9949140135465,-0.025396369224193093,359.99618511197747,0.9334328174591064,3.656479633242852e-05,3.665825414396612e-05
57.8,89.99790563640298,-0.023642531391807203,359.99460050809,0.9317798018455505,3.657970817594025e-05,3.667331193357328e-05
57.9,90.00448993876286,-0.019732973466068886,359.99110345123495,0.9284383058547974,3.660978595078134e-05,3.670354295762619e-05
58.0,90.01257688274016,-0.014917461650058457,359.9868414131929,0.9243876338005066,3.664623234377825e-05,3.6740145340305895e-05
58.1,90.00430552365528,-0.01992511088958851,359.9911580927483,0.9280248284339905,3.661360705345772e-05,3.670770009124199e-05
58.2,90.00372495757583,-0.020317054691704146,359.9914313003151,0.9280501008033752,3.661344168188517e-05,3.670768155204836e-05
58.3,90.01298669409036,-0.014796837774572321,359.9865682056261,0.9234465956687927,3.665485921711838e-05,3.674924284858385e-05
58.4,90.00367031606247,-0.02043212737096299,359.9914313003151,0.9275729060173035,3.661783866175444e-05,3.671240505208707e-05
58.5,90.00909348626345,-0.017218418312292864,359.9885626208637,0.9247733950614929,3.664305281021e-05,3.673775623713005e-05
58.6,90.01192801476901,-0.015557955302359129,359.9870326584896,0.9231885671615601,3.665734599973212e-05,3.675220998409043e-05
58.7,90.01458495835614,-0.014003128438355848,359.98563929989893,0.9216866493225098,3.6670895103541925e-05,3.6765916362214555e-05
58.8,90.00621114643371,-0.019078059043274493,359.9900106209678,0.9253730773925781,3.663783050567568e-05,3.673302363113569e-05
58.9,90.01289107144198,-0.015105271841913973,359.98645892259935,0.9219781160354614,3.6668393718043535e-05,3.676372289231675e-05
59.0,90.01555484521829,-0.013548589854509413,359.985038243252,0.9204729795455933,3.6681970223383334e-05,3.6777461532314195e-05
59.1,90.00714688235,-0.01863961626044455,359.9894368850775,0.9241702556610107,3.6648807481633443e-05,3.6744470591733326e-05
59.2,90.01388144887163,-0.014636350006923508,359.9858851867091,0.9207500219345093,3.667959802093842e-05,3.677539686254398e-05
59.3,90.02326612879124,-0.009041975678250125,359.98094012974997,0.9160838723182678,3.6721573886122295e-05,3.681752547931425e-05
59.4,90.03226148792814,-0.0036794559229135953,359.9761863180877,0.9115995168685913,3.6761914675740886e-05,3.68580229828972e-05
59.5,90.02520590251551,-0.007962192139579868,359.97987462023946,0.9146580696105957,3.67344868441397e-05,3.683077269645583e-05
59.6,90.02739156304992,-0.006689551222757624,359.9786998277022,0.9133725762367249,3.674609610585577e-05,3.684252443212627e-05
59.7,90.01930461907263,-0.011590890218707814,359.9829072242309,0.9169155359268188,3.671432027585705e-05,3.681091766485319e-05
59.8,90.01551386408326,-0.013911321924720683,359.98487431871195,0.9184401631355286,3.670068310945022e-05,3.679742988474654e-05
59.9,90.01677061889055,-0.013196958509226066,359.98419129979493,0.9175897240638733,3.670838293356643e-05,3.680527822281251e-05
60.0,90.02362129862807,-0.009124449045209372,359.98058495991313,0.914111316204071,3.673969026990352e-05,3.683673356581161e-05
60.1,90.030970582175,-0.004752510157776337,359.9767054124646,0.9103986024856567,3.677309938428675e-05,3.687029753238552e-05
60.2,90.03412612957155,-0.0028957340291434477,359.9750115255504,0.9086530804634094,3.6788834193455334e-05,3.6886193194879926e-05
60.3,90.03778711096668,-0.0007370693963833629,359.9730717518261,0.906671941280365,3.680668779349168e-05,3.690420071214683e-05
60.4,90.04753379091228,0.0050749039244921985,359.9679354495703,0.9018349647521973,3.685019894935327e-05,3.6947857684265634e-05
60.5,90.05531337637693,0.00970947825974677,359.96383733606825,0.8979182839393616,3.688543872376986e-05,3.698325381831256e-05
60.6,90.05045028168789,0.006745216180600904,359.9663508456828,0.899938702583313,3.6867337309848494e-05,3.6965322852050754e-05
60.7,90.05529288580942,0.009613985678445512,359.9638100153116,0.897402286529541,3.6890183466532244e-05,3.698830840563723e-05
60.8,90.06092779187468,0.012962788575131754,359.9608047320768,0.8944903016090393,3.691639891711829e-05,3.7014675162429445e-05
60.9,90.06518982991678,0.015481150692256196,359.958564430029,0.8922271132469177,3.693678466911239e-05,3.703521504343777e-05
61.0,90.05520409335021,0.009439443162403279,359.96378269455494,0.8966494798660278,3.689710519045878e-05,3.699570692400993e-05
61.1,90.0548625838917,0.009191261001845192,359.96391929833834,0.8965469002723694,3.6898087369953155e-05,3.699682765872452e-05
61.2,90.0440708850031,0.002663144493434359,359.9695746949711,0.9013503789901733,3.685498683624591e-05,3.6953893303345774e-05
61.3,90.05040930055286,0.0064337092785197395,359.9662142418994,0.8981053233146667,3.6884203030965495e-05,3.698323835322592e-05
61.4,90.0601969616335,0.012272340826892098,359.96105061888693,0.8932433128356934,3.692793724884823e-05,3.702712024407415e-05
61.5,90.05885824455616,0.011428348058222708,359.9617336378039,0.8936013579368591,3.692477051864921e-05,3.702412103939564e-05
61.6,90.05295696111328,0.007839100324647536,359.9647935625521,0.8961048722267151,3.6902333468998725e-05,3.70018421269052e-05
61.7,90.05652231986002,0.009939958791121684,359.96290843034114,0.8941628932952881,3.6919839253546775e-05,3.701948663173009e-05
61.8,90.0549786971076,0.008970748944800926,359.9637007322849,0.8946187496185303,3.6915797535033005e-05,3.701560365290487e-05
61.9,90.05001997977017,0.0059488133719584405,359.9662688834128,0.8966788053512573,3.689734506867677e-05,3.6997307700641325e-05
62.0,90.0471444701296,0.004178166037148644,359.9677442042735,0.8977614045143127,3.6887676663195624e-05,3.6987788285152685e-05
62.1,90.04277997924996,0.001512609466410959,359.970011827078,0.899543285369873,3.6871724427022736e-05,3.697199012382768e-05
62.2,90.05153628176592,0.00673523269853038,359.96539461919906,0.8951595425605774,3.691116774628814e-05,3.701156772546351e-05
62.3,90.04532763981037,0.0029633434804009853,359.9686184684873,0.8978034853935242,3.6887463844817645e-05,3.698803657102639e-05
62.4,90.03792371475008,-0.0015279367460813247,359.97249801593586,0.9010112285614014,3.685870292668359e-05,3.6959429571123054e-05
62.5,90.04236333771058,0.001097713619004868,359.9701484308614,0.8986549377441406,3.687993269894e-05,3.698079538231692e-05
62.6,90.04180326219864,0.0007205105440594625,359.9703943176715,0.8986450433731079,3.688007451169823e-05,3.698109652117625e-05
62.7,90.0373704694273,-0.0019855721353629068,359.9727165819893,0.9004561901092529,3.68638582064704e-05,3.696503810023407e-05
62.8,90.03192680865881,-0.005298212006851607,359.9755306199273,0.9027420282363892,3.684337931429444e-05,3.6944713120884315e-05
62.9,90.02242601552332,-0.011048720607964913,359.9805029976431,0.9069348573684692,3.680576828023022e-05,3.6907260402785365e-05
63.0,90.02508295911045,-0.009495084357991755,359.97908231829575,0.905413806438446,3.681949498301781e-05,3.6921123608444045e-05
63.1,90.0285117140738,-0.007477478827187054,359.9772518275982,0.9035288691520691,3.683648426070409e-05,3.693826526540422e-05
63.2,90.0283751102904,-0.007602128112013134,359.97730646911157,0.9033195376396179,3.683841887180199e-05,3.694035829810131e-05
63.3,90.02513077043464,-0.009593004858099542,359.978973035269,0.9045702815055847,3.6827237918282614e-05,3.692933494683889e-05
63.4,90.01567095843417,-0.015318695243157038,359.9839180922281,0.908743143081665,3.678980451932989e-05,3.68920633712485e-05
63.5,90.02246016646917,-0.011280882839969211,359.98033907310304,0.9052762985229492,3.682101338752459e-05,3.692340347561445e-05
63.6,90.02731643096905,-0.008405163924798913,359.9777709219751,0.9027175307273865,3.684405461770361e-05,3.694660098161931e-05
63.7,90.01836205296716,-0.01382672496256905,359.9824427713674,0.9066494703292847,3.680878156432546e-05,3.6911500476010264e-05
63.8,90.02151760036371,-0.01197355757005373,359.98074888445325,0.9048903584480286,3.6824646860611894e-05,3.692750261544503e-05
63.9,90.0283956008579,-0.007883504891885882,359.9771152238148,0.9013803601264954,3.685623638863353e-05,3.695924040525884e-05
64.0,90.03235028038735,-0.00554914808767685,359.9750115255504,0.8992435336112976,3.6875486203824714e-05,3.697864756388109e-05
64.1,90.03141454447106,-0.006154258491931015,359.97547597841395,0.899405837059021,3.687408109863842e-05,3.697740211448366e-05
64.2,90.02946111036843,-0.007370431119944975,359.97648684641115,0.9000465273857117,3.686838126653871e-05,3.697185630430418e-05
64.3,90.02850488388464,-0.007985530008849622,359.97695129927473,0.9002171158790588,3.686690509548061e-05,3.6970531287887396e-05
64.4,90.02822484612867,-0.008199762160519312,359.9770879030581,0.9000740647315979,3.686824622625924e-05,3.697202407402563e-05
64.5,90.02551326102817,-0.009870148621564068,359.97848126164877,0.9010699987411499,3.685935418726647e-05,3.696328797420239e-05
64.6,90.02937914809839,-0.007588921300922679,359.9764322048978,0.8989749550819397,3.6878234150652516e-05,3.698231157154029e-05
64.7,90.02678367621378,-0.009191855475096928,359.9777709219751,0.8999174237251282,3.686981979339824e-05,3.697405867356385e-05
64.8,90.02174299660632,-0.012260041984064112,359.9803663938597,0.9020067453384399,3.685110563485906e-05,3.695550046908522e-05
64.9,90.01427076965432,-0.016790419248889625,359.98427326206496,0.9052404761314392,3.6822110764726093e-05,3.692666158458209e-05
65.0,90.00785039183451,-0.020689081555478318,359.9876337151366,0.9079802632331848,3.679755531261985e-05,3.690225767296508e-05
65.1,90.00338344811732,-0.0234135599720531,359.98992865869775,0.9098008871078491,3.6781257557915715e-05,3.6886110655793304e-05
65.2,89.99929899499365,-0.025906600696954243,359.99205967771877,0.9114402532577515,3.676658771396297e-05,3.687159414125034e-05
65.3,90.00645703324383,-0.02165281691179782,359.98826209254025,0.9077961444854736,3.679938609884343e-05,3.6904531292962415e-05
65.4,90.00878612775081,-0.020297904815622984,359.9870326584896,0.906420886516571,3.681179423504225e-05,3.691710024031213e-05
65.5,89.99787831564629,-0.026886137535836012,359.9927153758791,0.9112645387649536,3.676833140973706e-05,3.6873809629946816e-05
65.6,89.99560386265267,-0.02829579286449677,359.9938901684163,0.9120538830757141,3.676130184126277e-05,3.6866922252392004e-05
65.7,89.99655325894732,-0.0277701684532033,359.99337107403943,0.9113267064094543,3.676789282366466e-05,3.687366301215539e-05
65.8,89.99772122129538,-0.027110053014778715,359.9927426966358,0.9104939103126526,3.677543064408021e-05,3.688135502241469e-05
65.9,89.99541261735592,-0.0285383112707785,359.99391748917304,0.9112967252731323,3.676827344590552e-05,3.687435707386789e-05
66.0,89.99856133456329,-0.026690246509820853,359.99225092301555,0.9095336198806763,3.678417105167942e-05,3.689040161173955e-05
66.1,89.98933374899461,-0.03227163330715863,359.9970593761912,0.9135889410972595,3.674779126958308e-05,3.685419314518392e-05
66.2,89.9902011830192,-0.0317952609630833,359.99656760257096,0.9128994345664978,3.6754047370239114e-05,3.6860589899579416e-05
66.3,89.99280348509298,-0.03027641432166824,359.9951742439803,0.9113923907279968,3.676764292927173e-05,3.687433761664511e-05
66.4,89.99270103225543,-0.03038094823248117,359.995201564737,0.911156952381134,3.676981312459746e-05,3.6876666202074725e-05
66.5,89.99479790033061,-0.02916560478209533,359.9940814137131,0.9098877906799316,3.678127181017223e-05,3.688827641647553e-05
66.6,89.98741446583783,-0.03363729094508434,359.997933640405,0.9130733013153076,3.675270710930257e-05,3.685987910351893e-05
66.7,89.97701208773191,-0.039924850266998,0.003372307101739615,0.9176828265190125,3.6711353413182875e-05,3.6818684056591406e-05
66.8,89.97103567220815,-0.04355204423708509,0.006483315695151606,0.9202076196670532,3.6688731890745354e-05,3.679621127014582e-05
66.9,89.96101578469573,-0.04960845101438275,0.01172156844614722,0.9246371388435364,3.664899582136842e-05,3.6756636149594216e-05
67.0,89.95014212353708,-0.0561749641999426,0.017408296237197897,0.9294676780700684,3.660565867746274e-05,3.671345623410944e-05
67.1,89.95898038832307,-0.05091751613276453,0.012739612644259582,0.9250202178955078,3.664567939969794e-05,3.6753606552089356e-05
67.2,89.96311265277093,-0.048479658867385665,0.01054021169023614,0.922783374786377,3.6665828838280265e-05,3.677391937899887e-05
67.3,89.97128155901827,-0.04362407805343426,0.0062249782972777536,0.9186509251594543,3.6703010765174936e-05,3.681125266099713e-05
67.4,89.96583789824976,-0.04693234421095341,0.009056326412624426,0.9209194779396057,3.6682681604193136e-05,3.679109847981623e-05
67.5,89.97488106871086,-0.04154670002975869,0.004277767404122487,0.9163714051246643,3.672360251518816e-05,3.683215554415315e-05
67.6,89.9755572574387,-0.041184703338801316,0.003896182694455926,0.9157607555389404,3.672914055759589e-05,3.683786073201094e-05
67.7,89.96710148324621,-0.04630454377153412,0.008313158141728734,0.9194483757019043,3.669606543598925e-05,3.680495370253889e-05
67.8,89.97218997417788,-0.043293574270842336,0.00561301352471711,0.9167608618736267,3.672027235388945e-05,3.682929743256805e-05
67.9,89.97140450242333,-0.04380950701722953,0.005999781740984009,0.9168375730514526,3.671963722456328e-05,3.6828825779248794e-05
68.0,89.97114495523486,-0.044008309544780536,0.00610915398038014,0.9166660904884338,3.672123484031362e-05,3.6830578176931846e-05
68.1,89.9699974834543,-0.04473909976533223,0.006684180119408843,0.9169116616249084,3.671908503656078e-05,3.6828584926890114e-05
68.2,89.97508597438596,-0.041729307538457355,0.00398509188053179,0.91422438621521,3.674328570952769e-05,3.685293236803598e-05
68.3,89.98189567298846,-0.03768349767744253,0.000379773463060335,0.9107246994972229,3.677478186771113e-05,3.6884581325396134e-05
68.4,89.98045450307359,-0.038591656037949694,0.001109682812657671,0.9111076593399048,3.67713936413217e-05,3.68813593014683e-05
68.5,89.9845731071431,-0.0361651346187568,359.9989171876455,0.9088777303695679,3.679148517134452e-05,3.6901597743424566e-05
68.6,89.97701208773191,-0.04074369923503261,0.002863806521644108,0.9121371507644653,3.6762255132198826e-05,3.6872537956780375e-05
68.7,89.96613842657324,-0.04731019908037924,0.008547223021643917,0.91695636510849,3.671901745815174e-05,3.6829459166931246e-05
68.8,89.96124801112751,-0.05029039270916629,0.011091837844627271,0.9189637303352356,3.670104532515897e-05,3.6811633440511595e-05
68.9,89.96256623763733,-0.049539181957223975,0.010368988385996375,0.9180436730384827,3.670937088848313e-05,3.682010560492866e-05
69.0,89.95932189778156,-0.0515308924666368,0.012047844214910881,0.9192745685577393,3.66983678700032e-05,3.680926436399941e-05
69.1,89.9580173316501,-0.05235851262486533,0.012707494413399325,0.9195926785469055,3.669556825654559e-05,3.680661773731607e-05
69.2,89.96262770933986,-0.049634727899378124,0.01025709651382781,0.9171245694160461,3.671779998599365e-05,3.682899699467569e-05
69.3,89.95654884097854,-0.053325544681377485,0.013423890543883748,0.9196876287460327,3.669482674163635e-05,3.680619406211016e-05
69.4,89.96507974725189,-0.04824934675620269,0.008913626151781404,0.9153735637664795,3.673364538954245e-05,3.6845148285025945e-05
69.5,89.97310521952666,-0.04348037394154623,0.0046731596513561865,0.9112998247146606,3.6770297324752264e-05,3.6881956290069926e-05
69.6,89.98158148428664,-0.0384333877482758,0.00019064003669558578,0.907008707523346,3.680890238965414e-05,3.6920715799371746e-05
69.7,89.98455944676476,-0.036692326505103935,359.9985893385653,0.9053089022636414,3.682422516892931e-05,3.6936200521284466e-05
69.8,89.98384910709109,-0.03715967752998743,359.99894450840213,0.905340313911438,3.682399712695446e-05,3.693613134901591e-05
69.9,89.97445076679315,-0.04284309528063223,0.0038543227728898054,0.9094601273536682,3.678703916766359e-05,3.6899338800714304e-05
70.0,89.978583031241,-0.040407532531927665,0.0016575440045279468,0.9072156548500061,3.680726529481109e-05,3.691969992693886e-05
70.1,89.98273578625637,-0.037955768094264146,359.9994362820224,0.9049575328826904,3.682760697841671e-05,3.6940195211995286e-05
70.2,89.98201178620435,-0.03843675615211453,359.9997914518592,0.9049980044364929,3.682729700719292e-05,3.694004561753072e-05
70.3,89.97914310675294,-0.040200639165057096,0.0012803991887949747,0.9060443639755249,3.681795214068848e-05,3.693085711373958e-05
70.4,89.97343989879599,-0.043665609472249775,0.004247895748545262,0.908424437046051,3.6796626080835204e-05,3.690968829454971e-05
70.5,89.98173857863755,-0.03872763950143509,359.99987341412924,0.9042168259620667,3.683448795501522e-05,3.694768444496571e-05
70.6,89.97976465396742,-0.03995486241169573,0.0008691310977323345,0.9048404693603516,3.6828936393327305e-05,3.6942300448401983e-05
70.7,89.98354174857843,-0.037732909827219344,359.9988625461321,0.9027613997459412,3.6847672300478e-05,3.696118189499657e-05
70.8,89.98819993759238,-0.034979256364326555,359.99637635727424,0.9002652764320374,3.6870151763689605e-05,3.6983813217142214e-05
70.9,89.99485937203315,-0.0310254172683222,359.9928519796625,0.8968289494514465,3.6901077941219096e-05,3.701488950971151e-05
71.0,90.00031669317998,-0.027793345406151054,359.9899559794544,0.8939581513404846,3.692692173161596e-05,3.704088736460507e-05
71.1,90.00791186353705,-0.02327483509475044,359.98593982822246,0.8900803327560425,3.69618138188707e-05,3.707592842893447e-05
71.2,90.0125905431185,-0.020508008171300256,359.98345363936454,0.8875741362571716,3.6984381289389476e-05,3.709865124637426e-05
71.3,90.00942133534362,-0.02245337144492418,359.9850928847654,0.8887569904327393,3.697380604650236e-05,3.708823761368637e-05
71.4,90.00617016529868,-0.024446154173974777,359.98678677167953,0.8899776935577393,3.69628952761035e-05,3.707747749081088e-05
71.5,90.0054393350575,-0.024930152117433525,359.98714194151637,0.8900169730186462,3.696259855069911e-05,3.7077327811439056e-05
71.6,90.00993359953137,-0.022271502650532717,359.98473771492854,0.8875954151153564,3.698441036241417e-05,3.709928305195055e-05
71.7,90.01118352414947,-0.0215664623765541,359.9840546960115,0.8867029547691345,3.699248086315555e-05,3.7107508575852536e-05
71.8,90.01085567506932,-0.02180667959605492,359.9842186205516,0.8865507245063782,3.6993901993688436e-05,3.710908226214561e-05
71.9,90.00623846719039,-0.02461742750401413,359.98659552638276,0.8884111642837524,3.697724220011799e-05,3.709257854178591e-05
72.0,90.01581439240675,-0.0189134057940469,359.98154118639695,0.8836051225662231,3.702047866951066e-05,3.7135945755824556e-05
72.1,90.01453031684278,-0.019724637500331363,359.98219688455725,0.8838977813720703,3.701789839869596e-05,3.7133530404321076e-05
72.2,90.01431858097851,-0.01989431500736395,359.98227884682734,0.8836891651153564,3.7019827577895975e-05,3.7135608045040495e-05
72.3,90.02335492125044,-0.014511320526020582,359.9774977144083,0.8791344165802002,3.70608040109521e-05,3.717672139754004e-05
72.4,90.03041050666306,-0.010316131126154806,359.9737820914998,0.8755087852478027,3.70934272198526e-05,3.7209496673300804e-05
72.5,90.02181129849802,-0.01552168326260666,359.97826269559533,0.8792374730110168,3.7059977004701465e-05,3.717621687368768e-05
72.6,90.0128842412528,-0.02092617049497842,359.9829072242309,0.8831236362457275,3.702512130372462e-05,3.714151032518948e-05
72.7,90.00951012780283,-0.022993958572873542,359.98465575265845,0.8843979835510254,3.701373129594588e-05,3.713026154187201e-05
72.8,90.0048246180322,-0.025847275101226325,359.987087300003,0.8862869143486023,3.69968164302054e-05,3.711349780699659e-05
72.9,90.0144142036269,-0.020133388303580923,359.9820329600172,0.8814676403999329,3.704017188960213e-05,3.7156983404486934e-05
73.0,90.00509099540983,-0.02577271498199811,359.9868960547062,0.8855347633361816,3.700368073214573e-05,3.712066785221574e-05
73.1,90.00128658004213,-0.02809819429118911,359.9888631491872,0.8870086669921875,3.699049788452998e-05,3.7107627199105514e-05
73.2,90.01024095804402,-0.02276442186158413,359.98413665828156,0.8824837803840637,3.703120780611518e-05,3.7148469325911336e-05
73.3,90.01121767509532,-0.02222271749077737,359.98359024314794,0.8817098736763,3.70382102961955e-05,3.715563256023314e-05
73.4,90.01757658121261,-0.018447777324195783,359.9802297900763,0.8784056305885315,3.7067950988787456e-05,3.7185515476372576e-05
73.5,90.02625092145853,-0.013277984463050653,359.9756399029541,0.8740096092224121,3.710749693078503e-05,3.7225207329375595e-05
